lat,lng,address
37.5469928,126.86317989999998,서울 양천구 목3동 621-15 1층
36.0193906,126.76509639999995,전북 군산시 성산면 성덕리 411-1
37.50923770000001,127.12346839999998,서울 송파구 방이동 213-7 1층
35.1841107,129.1234151,부산 해운대구 재송1동 센텀필상가 1층 101호
37.5133379,127.04240359999994,서울 강남구 논현동 267-3 1층
34.4963319,126.8004353,전남 강진군 대구면 수동리 529번지
35.1777498,128.79571550000003,경남 김해시 장유면 관동리 451-3 덕정옥스포더빌딩104호
37.5543595,126.9371688,서울 마포구 노고산동 31-22
37.4806929,126.99299109999993,서울 서초구 방배동 978-10 동북빌딩3층
37.46594899999999,126.65178939999998,인천 남구 숭의동 118-17
37.4678904,126.70057220000001,인천 남동구 간석4동 574-9
35.8672737,128.70827110000005,대구 동구 서호동 105-3번지
35.1841107,129.1234151,부산 해운대구 재송1동 센텀필상가 1층 101호
35.8170333,128.64540809999994,대구 수성구 범물동 1319-4번지
37.2388664,127.03082159999997,경기 수원시 권선구 곡반정동 555번지
35.1393534,129.09018190000006,부산 남구 대연동 1467-2번지
37.6765231,126.74742760000004,경기 고양시 일산구 대화동 2205-1 월드프라자 1층
35.0990124,129.02936620000003,부산 중구 남포동3가 5번지
37.6756389,126.78608310000004,경기 고양시 일산동구 중산동 1802번지 풍산프라자1층
37.749572,127.08030669999994,경기 의정부시 용현동 546번지
35.175873,129.12439189999998,부산 해운대구 재송동 1208-1
36.8188611,127.16407759999993,충남 천안시 신부동 501-5.6.18
35.8237098,127.15006130000006,전북 전주시 완산구 중노송동 495-6
36.7772488,127.76344740000002,충북 괴산군 문광면 신기리 111
37.2149016,127.04431939999995,경기 화성시 병점동 844-7번지 2층
35.9100189,128.61700329999996,대구 북구 검단동 887-77
37.4734985,126.88794259999997,서울 금천구 가산동 219-8 대한창고A동4층
37.5430898,126.72521600000005,인천 계양구 계산1동 945-12
37.546797,126.87151059999997,서울 양천구 목2동 507-2 덕수프라자 101호
36.7888775,126.86128059999999,충남 아산시 선장면 군덕리 329
35.8429715,129.21642369999995,경북 경주시 황오동 263-7
37.6756389,126.78608310000004,경기 고양시 일산동구 중산동 1802 풍산프라자1층
37.5543595,126.9371688,서울 마포구 노고산동 31-22
37.5543595,126.9371688,서울 마포구 노고산동 31-22
35.8647927,127.12775110000007,전북 전주시 덕진구 송천동2가 202-61
37.2672804,127.00229820000004,경기 수원시 팔달구 매산로1가 54-6번지 1층
37.7088729,126.81366559999992,경기 고양시 일산구 설문동 167-20호
35.172038,129.13248220000003,부산 해운대구 우동 1484번지 한화오피스텔현장 지하
35.1893008,129.12643790000004,부산 해운대구 재송2동 1058-18번지
37.2581661,127.05956809999998,경기 수원시 영통구 매탄동 409-25번지1층
35.1371013,126.90137819999995,광주 남구 백운동 640-1 번지
36.8188611,127.16407759999993,충남 천안시 신부동 501-5.6.18
35.1193687,128.78804160000004,경남 창원시 진해구 남양동 345-6번지
35.5438373,128.70745520000003,경남 밀양시 부북면 월산리 197-1 2층
37.3798877,126.80310250000002,경기시흥시정왕 1697-5 시화공단1마506호 1697-5 시화공단 506호
35.2030382,128.8014048,경남 김해시 장유면 부곡리 804-5 아모르빌딩 103호
37.4198396,126.7614529,경기 시흥시 방산동 235-6
37.482876,127.01986770000008,서울 서초구 서초동 1425-12번지
37.6587754,127.0684857,서울 노원구 상계2동 335
36.9731813,127.92978970000001,충북 충주시 충의동 274번지
37.3127873,126.74839070000007,경기 안산시 단원구 성곡동 시화공단4마803호
35.8423935,128.53110479999998,대구 달서구 장기동 560-3
37.5957585,126.99298139999996,서울 성북구 성북동 296-8
36.5906544,127.46422180000002,충북 청원군 남이면 양촌리 324-1
34.9004935,127.57272499999999,전남 순천시 해룡면 호두리 227-1
34.9004935,127.57272499999999,전남 순천시 해룡면 호두리 227-1
36.7718561,127.01976850000005,충남 아산시 풍기동 274-2
37.484608,126.98163820000002,서울 동작구 사당동 147-53 골든시네마 피자헛
37.5228322,127.03642100000002,서울 강남구 신사동 651-16 호림아트센타 10-13층
37.7683744,126.77549199999999,경기 파주시 금촌동 20-8
35.1869594,126.86657119999995,광주 북구 동림동 908-6번지
37.4892875,126.77395419999993,경기 부천시 원미구 심곡동 336-30
37.3188666,126.75837339999998,경기 안산시 단원구 성곡동 641-7 604B29L
35.2220825,126.8243314,광주 광산구 비아동 105
33.483274,126.47108760000003,제주 제주시 노형동 2513-1
37.5339906,127.17385519999993,경기 하남시 초이동 322-38.39
35.8647927,127.12775110000007,전북 전주시 덕진구 송천동2가 202-61
35.8237098,127.15006130000006,전북 전주시 완산구 중노송동 495-6
36.3539296,127.37566630000003,대전 서구 둔산동 970번지
37.2481648,127.23693320000007,경기 용인시 처인구 고림동 89
37.7565482,127.01957859999993,경기 의정부시 녹양동 315-4 호명산빌리지 114동103호
37.7830626,126.84493010000006,경기 파주시 광탄면 신산리 366-1번지
37.3269157,126.7392016,경기 안산시 단원구 성곡동 659-7 시화4다208호
37.96672,127.06771359999993,경기 동두천시 하봉암동 73
37.4903635,127.03185480000002,서울 강남구 역삼동 837-9 한진빌딩 10층
36.1015699,127.4986298,충남 금산군 금산읍 중도리 9-1 금산인삼쇼핑센타지하
37.6587754,127.0684857,서울 노원구 상계2동 335
37.7830626,126.84493010000006,경기 파주시 광탄면 신산리 366-1번지
35.9614355,126.78164019999997,전북 군산시 개정면 운회리 633-7
37.4265509,127.28562119999992,경기 광주시 초월읍 지월리 785-2
37.412155,127.1298683,경기 성남시 분당구 야탑동 361-5번지 대덕프라자 201호
37.5265379,127.0429216,서울 강남구 청담동 79-10 지하1층
37.5129195,126.76881700000001,경기 부천시 원미구 약대동 139-3
37.4002605,126.97613619999993,경기 안양시 동안구 관양동 1502-6 3층 303호
37.6871623,126.77949860000001,경기 고양시 일산동구 중산동 1580-1 웅신프라자1층
37.7830626,126.84493010000006,경기 파주시 광탄면 신산리 366-1번지
37.3455469,127.92863069999999,강원 원주시 단계동 870-4번지
37.6861743,127.8797965,강원 홍천군 홍천읍 연봉리 451-1
37.6608468,126.84059980000006,경기 고양시 덕양구 성사동 714
34.7755116,127.64791349999996,전남 여수시 화장동 793-2
37.4676955,127.20517029999996,경기 광주시 중부면 검복리63-1번지
35.7207191,126.73685520000004,전북 부안군 부안읍 봉덕리 546-1 3층
35.1777741,128.11486979999995,경남 진주시 상대동 301-83번지
37.4436227,126.73787519999996,인천 남동구 만수동 1020-6
35.1193687,128.78804160000004,경남 창원시 진해구 남양동 345-6번지
37.4798907,126.67731000000003,인천 서구 가좌동 542-13
35.3012251,128.83318399999996,경남 김해시 한림면 안하리 2002-6
36.1758033,128.44083420000004,경북 구미시 산동면 동곡리 675번지
37.3390733,126.71100369999999,경기 시흥시 정왕동 1250-8 시화공단1라403호
35.95261,129.38850809999997,경북 포항시 남구 오천읍 문덕리 1350
37.6571362,126.77254219999998,경기 고양시 일산동구 장항동 856-3 낙원프라자 102
37.7088729,126.81366559999992,경기 고양시 일산구 설문동 167-20호
34.8871417,128.62394440000003,경남 거제시 고현동 36-5 1호
35.1780621,126.92735019999998,광주 북구 우산동 4-1우미프라자1층
37.4864854,127.03263190000007,서울 서초구 서초동 1361-9 서강빌딩102호
37.5693255,126.9860066,서울 종로구 관철동 13-13
36.1173924,128.34699999999998,경북 구미시 송정동 458-7
35.1570356,129.0630291,부산 부산진구 전포동 668-1 밀레오레 1층
37.3127873,126.74839070000007,경기 안산시 단원구 성곡동 시화공단4마803호
37.3127873,126.74839070000007,경기 안산시 단원구 성곡동 시화공단4마803호
36.731637,127.28240110000002,충남 천안시 수신면 속창리 127-1
37.6562003,127.30572400000005,경기 남양주시 화도읍 마석우리 299-10
37.5707704,127.00395890000004,서울 종로구 종로5가 231-10번지
36.8818957,126.91072970000005,충남 아산시 인주면 공세리 114-18
37.4936815,127.11833290000004,서울 송파구 가락동 98-4 맵스송파타워 15층
35.192292,128.05344149999996,경남 진주시 이현동 495-7
37.5827664,126.99933369999997,서울 종로구 명륜동4가 176-2
37.8324039,127.19491330000005,경기 포천시 가산면 금현리 369-4
35.2210885,126.94871009999997,광주 북구 운정동 251-1
35.566208,128.45651240000007,경남 창녕군 대합면 소야리 154번지
36.96311420000001,127.87062229999992,충북 충주시 이류면 만정리734-150
35.8418102,129.18663349999997,경북 경주시 충효동 2997-5
37.83926040000001,126.97896860000003,경기 양주시 광적면 석우리 270-3
37.5443496,127.06572920000008,서울 광진구 화양동 234 현대아파트상가1층
37.5019237,126.84790120000002,서울 구로구 개봉동 126-33
37.7871479,126.79343889999996,경기 파주시 월롱면 위전리 531-9번지
37.4584448,126.73048270000004,인천 남동구 만수동 871-18
37.5700056,126.97389339999995,서울 종로구 신문로1가 고려빌딩 1층
37.6246798,127.02714170000002,서울 강북구 미아3동 125-25 1층
37.5555558,126.9332359,서울 마포구 노고산동 49-45
37.5366218,126.97335900000007,서울 용산구 한강로3가 40-1용산역민자역사 5층
33.496489,126.53000589999999,제주 제주시 이도2동 1008-1
37.4645337,126.68167259999996,인천 남구 주안동 128-9 외
33.496489,126.53000589999999,제주 제주시 이도2동 1008-1
36.1074937,128.42219690000002,경북 구미시 인의동 367-26
37.7379142,126.78284770000005,경기 파주시 조리읍 능안리 387-7번지
37.5863452,126.70368009999993,인천 서구 당하동 당하지구 38BL-1LT
35.8676429,128.5988069,대구 중구 삼덕동1가 21-9번지 2층
33.5314285,126.62223240000003,제주 제주시 조천읍 신촌리 1733-2
37.5560315,126.94566970000005,서울 마포구 대흥동 12-172번지2층
35.8672037,128.36491780000006,경북 성주군 용암면 문명리 530-1번지
37.5102186,127.05281450000007,서울 강남구 삼성2동 122-26
37.4924324,126.98906099999999,서울 서초구 방배동 793-13
36.6329918,127.42955830000005,충북 청주시 흥덕구 복대동 2744번지 2층
37.5009052,126.77349630000003,경기 부천시 원미구 중동 1144-4 2층 현해탑프라자204호
37.3504592,127.1095067,경기 성남시 분당구 금곡동 157 8층
35.7141033,126.73287720000008,전북 부안군 부안읍 봉덕리 687-2
35.8532523,127.15947649999998,전북 전주시 덕진구 우아동3가 556-1
37.5626232,127.04863239999997,서울 성동구 사근동 231-28
35.6650831,126.95988469999998,전북 정읍시 태인면 고천리 842번지
37.3504592,127.1095067,경기 성남시 분당구 금곡동 157 8층
37.4340994,127.96720929999992,강원 원주시 소초면 의관리 공군부대내 명성회관
37.5547085,127.15463060000002,서울 강동구 명일동 46-2
37.1808585,128.20175740000002,충북 제천시 모산동 105번지
35.2083531,128.5747103,경남 마산시 중성동 157-1 1층
37.55693610000001,126.94526759999997,서울 서대문구 대현동 40-21 1층
36.4534033,127.43783860000008,대전 대덕구 신탄진동 40-6번지
35.2220825,126.8243314,광주 광산구 비아동 105
35.5402032,129.33774089999997,울산 남구 삼산동 1523-6번지
37.487936,126.78222740000001,경기 부천시 원미구 심곡동 192-12
35.1087848,129.0385586,부산 중구 중앙동4가 849번지 극동빌딩 1층
36.6357164,127.47225860000003,충북 청주시 흥덕구 사직1동 583-8번지
37.5010509,127.05342910000002,서울 강남구 대치4동 909-3 진영빌딩 B1층
35.83502259999999,128.61236210000004,대구 수성구 상동 64-9
35.83502259999999,128.61236210000004,대구 수성구 상동 64-9
37.49767170000001,126.99155189999999,서울 서초구 반포동 612-140 지하~4층
37.3207594,126.74655329999996,경기 안산시 단원구 성곡동 664-10번지
37.5625466,126.99259210000002,서울 중구 충무로3가 43
35.1333826,126.90681240000004,광주 남구 주월동 1264-5
35.1375023,126.91799470000001,광주 남구 양림동 79-16
36.7888775,126.86128059999999,충남 아산시 선장면 군덕리 329
37.3647128,126.93004280000002,경기 군포시 산본동 1099-4대림타운107.108호
37.377975,127.24365720000003,경기 광주시 오포읍 고산리 7-1
37.49767170000001,126.99155189999999,서울 서초구 반포동 612-140 지하~4층
35.1950998,128.08382989999996,경남 진주시 대안동 6-10번지
35.9450437,126.94343660000004,전북 익산시 모현동1가 272-1
35.8418102,129.18663349999997,경북 경주시 충효동 2997-5
35.1558748,126.8647555,광주 서구 쌍촌동 1373-5번지
35.9307397,126.95642399999997,전북 익산시 인화동2가 54번지(제이파크 상가내)
37.6772346,126.88586529999998,경기 고양시 덕양구 대자동 263-7번지
37.6849882,126.77715450000005,경기 고양시 일산서구 일산동 555-1 에이스스타디움 116호
35.6926308,127.90778019999993,경남 거창군 거창읍 중앙리 453-1
35.1375023,126.91799470000001,광주 남구 양림동 79-16
35.8665015,128.5947112,대구 중구 덕산동 124-22번지 지하1층
37.5372325,127.13704719999998,서울 강동구 길동 415-5
34.4509649,126.81769280000003,전남 강진군 마량면 마량리 987-68번지
37.8514094,127.74485570000002,강원 춘천시 석사동 888-3 2층 201호
37.2462013,127.05366960000003,경기 수원시 영통구 망포동 27-1
37.4748861,127.04481069999997,서울 서초구 양재동 272-9번지 1층
37.83926040000001,126.97896860000003,경기 양주시 광적면 석우리 270-3
35.2700361,128.6322639,경남 창원시 동읍 용강리 423번지
37.6672639,125.69824119999998,인천 옹진군 연평면 연평리 296
37.6569478,126.83608070000002,경기 고양시 덕양구 주교동 615-6
37.8126183,126.75726080000004,경기 파주시 탄현면 금승리 산18번지
34.4509649,126.81769280000003,전남 강진군 마량면 마량리 987-68번지
36.96311420000001,127.87062229999992,충북 충주시 이류면 만정리734-150
37.4892875,126.77395419999993,경기 부천시 원미구 심곡동 336-30
34.4509649,126.81769280000003,전남 강진군 마량면 마량리 987-68번지
37.3637021,126.96038599999997,경기 안양시 동안구 호계3동 804-11 유환프라자1층
37.5524188,126.92295919999992,서울 마포구 서교동 358-37 1층
37.5607688,126.80739219999998,서울 강서구 공항동 150 국내선1층
35.6494326,129.42207919999998,울산 북구 대안동 99-21번지
37.6571362,126.77254219999998,경기 고양시 일산동구 장항동 856-3 낙원프라자 102
37.5070431,126.89021849999995,서울 구로구 구로동 3-25
35.8672737,128.70827110000005,대구 동구 서호동 105-3번지
35.06009,128.04648559999998,경남 사천시 사남면 초전리 1980
37.521383,127.0392531,서울 강남구 논현동 101-13 1층
35.9836783,126.71797470000001,전북 군산시 평화동 110-8
35.9219349,127.94684230000007,경북 김천시 대덕면 연화리 255
35.1531649,129.1106777,부산 수영구 광안4동 777-1
34.8612609,128.42227849999995,경남 통영시 무전동 1056-1 시티빌딩101호
35.9673308,126.61484619999999,전북 군산시 소룡동 4번지
37.7683744,126.77549199999999,경기 파주시 금촌동 20-8
37.5285732,126.9289741,서울 영등포구 여의도동 하나증권빌딩 23-3번지 6층
37.20209140000001,127.05970660000003,경기 화성시 반송동 61-8
37.34860159999999,126.7271088,경기 시흥시 정왕동 시화공단 3라 105호
37.4678904,126.70057220000001,인천 남동구 간석4동 574-9
36.3513519,127.37753299999997,대전 서구 둔산동 1039번지
37.2470963,127.05054070000006,경기 수원시 영통구 신동 486디지털엠파이어2 103동 702호
37.583033,127.11613549999993,경기 구리시 교문동 150번지(두산아파트정문앞)
37.5070431,126.89021849999995,서울 구로구 구로동 3-25
37.5187813,126.9278117,서울 영등포구 여의도동 45-21 알리안츠타워 9층
35.9416064,128.93359050000004,경북 영천시 도동 124-3
37.6913098,126.75460999999996,경기 고양시 일산서구 덕이동 446-8
37.4859324,126.89328569999998,서울 구로구 구로3동 우림이비지센터빌딩 2차703호
36.8818957,126.91072970000005,충남 아산시 인주면 공세리 114-18
35.6450664,126.87849519999997,전북 정읍시 정우면 초강리 28-3번지
37.476655,126.88578699999994,서울 금천구 가산동 60-73 벽산디지탈밸리5차
37.52675,126.80262019999998,경기 부천시 오정구 원종동 136-2
36.82497370000001,128.61667190000003,경북 영주시 영주동 511-9
37.3482345,127.94867069999998,강원 원주시 일산동 87-3
35.1348104,126.9538923,광주 동구 운림동 297번지
37.5074595,127.06444850000003,서울 강남구 대치동 1001 사조빌딩 8층
37.2700194,127.06358909999994,경기 수원시 영통구 원천동 177-1
37.2801554,127.11465900000007,경기 용인시 기흥구 구성읍 상하리 478-2
37.6913098,126.75460999999996,경기 고양시 일산서구 덕이동 446-8
36.82497370000001,128.61667190000003,경북 영주시 영주동 511-9
36.1248767,128.0477995,경북 김천시 대항면 대룡리 762 번지
34.7642438,127.66415830000005,전남 여수시 학동 35-1
37.5443496,127.06572920000008,서울 광진구 화양동 234 현대아파트상가1층
37.0126934,127.25591450000002,경기 안성시 석정동 149-3
37.1539866,128.22906579999994,충북 제천시 장락동 422-1
35.1786323,126.8768877,광주 북구 운암동 66-9
35.2282979,128.48975410000003,경남 마산시 내서읍 삼계리 20
35.8595035,128.61356009999997,대구 수성구 수성동1가 45-2
37.5414895,127.1775169,경기 하남시 초일동 32-1
35.5232378,129.31893620000005,울산 남구 야음동 712-1번지
34.4509649,126.81769280000003,전남 강진군 마량면 마량리 987-68번지
37.5658904,126.98508019999997,서울 중구 을지로2가 13 성신빌딩3층
36.617492,127.45675499999993,충북 청주시 흥덕구 성화동 475번지
38.17346360000001,128.60482609999997,강원 속초시 대포동 421-57
37.5410321,127.06894699999998,서울 광진구 화양동 7-33번지2층
37.54556360000001,127.06361259999994,서울 성동구 성수동2가 279-23오복빌딩구관4층
37.6641645,126.54473439999992,경기 김포시 대곶면 쇄암리 507-2
37.4929862,126.87570430000005,서울 구로구 구로1동 3-25
35.0975875,129.02636840000002,부산 중구 남포동6가 66번지 2층
37.6569478,126.83608070000002,경기 고양시 덕양구 주교동 615-6
35.1777498,128.79571550000003,경남 김해시 장유면 관동리 451-3 덕정옥스포더빌딩104호
37.4933371,126.99593340000001,서울 서초구 방배동 801-1 대우멤버스5차 501호
35.20943949999999,129.00691340000003,부산 북구 덕천2동 403-15번지
37.4676926,126.70718069999998,인천 남동구 간석4동 216-3
37.8749317,127.7165526,강원 춘천시 근화동 722-5
35.8188088,127.11563009999998,전북 전주시 완산구 중화산동2가 772-3
37.6218043,126.91853000000003,서울 은평구 갈현동 439
37.6218043,126.91853000000003,서울 은평구 갈현동 439
37.5162358,127.04131340000004,서울 강남구 논현동 242-29
34.7642438,127.66415830000005,전남 여수시 학동 35-1
37.2490449,127.03521469999998,경기 수원시 권선구 권선동 1311-6
34.7978339,126.37950750000005,전남 목포시 양동 7-2
37.1711145,127.33901259999993,경기 용인시 처인구 원삼면 두창리 2110
35.2298485,129.15791420000005,부산 해운대구 반송2동 900번지
37.5341359,127.00577580000004,서울 용산구 한남1동 657-70 지하
37.5070431,126.89021849999995,서울 구로구 구로동 3-25
37.5750286,126.90554610000004,서울 서대문구 북가좌1동 383-9
37.4861448,126.9291184,서울 관악구 신림동 1432-70
35.2145671,129.0795508,부산 동래구 온천동 456-25
37.749572,127.08030669999994,경기 의정부시 용현동 546번지
35.9738207,126.71588889999998,전북 군산시 서흥남동 832-5창대빌딩 102호
37.5070431,126.89021849999995,서울 구로구 구로동 3-25
37.5070431,126.89021849999995,서울 구로구 구로동 3-25
37.2490449,127.03521469999998,경기 수원시 권선구 권선동 1311-6
36.9695727,126.85360939999998,경기 평택시 포승면 만호리 593-4
37.5177114,127.10439969999993,서울 송파구 신천동 11-8 지하1층
35.9645281,126.9546282,전북 익산시 신동 760-14 2층
37.4777154,126.91400499999997,서울 관악구 신림12동 1477-20호
37.2886267,127.11438069999997,경기 용인시 기흥구 신갈동 703 새천년그린빌 401동
36.4401349,127.39997370000003,대전 대덕구 신일동 1673-22번지
37.2886267,127.11438069999997,경기 용인시 기흥구 신갈동 703 새천년그린빌 401동
37.6966049,126.73934069999996,경기 고양시 일산서구 덕이동 1047-1
35.9307397,126.95642399999997,전북 익산시 인화동2가 54번지(제이파크 상가내)
35.1973165,129.12306319999993,부산 해운대구 반여동 1652번지
37.4502681,126.67887500000006,인천 남구 주안7동 1458
35.20943949999999,129.00691340000003,부산 북구 덕천2동 403-15번지
35.2070298,126.79935849999993,광주 광산구 오선동 546-7
34.7677624,127.08153770000001,전남 보성군 보성읍 보성리 893-12
35.5385227,129.33575569999994,울산 남구 삼산동 1474-13번지 미라보빌딩5층
37.5707704,127.00395890000004,서울 종로구 종로5가 231-10번지
35.1848069,129.00108679999994,부산 사상구 모라3동 75-10
37.0126934,127.25591450000002,경기 안성시 석정동 149-3
37.3429581,126.78783180000005,경기 시흥시 거모동 1764-1
36.299108,127.37884570000006,대전 서구 복수동 619번지
37.50586759999999,127.04232479999996,서울 강남구 역삼동 690-10번지
35.237573,128.10094649999996,경남 진주시 집현면 냉정리 312-2번지
35.120146,126.86266019999994,광주 서구 풍암동 878-5번지
36.344829,127.38089250000007,대전 서구 탄방동 608 국민연금 대전회관빌딩
37.7401557,127.05594769999993,경기 의정부시 신곡동 560
35.9686612,126.70174159999999,전북 군산시 나운동 816-4
35.5442996,129.31966699999998,울산 남구 신정동 236-14
37.14249770000001,126.91064310000002,경기 화성시 향남읍 장짐리 36-1
37.5379796,127.12373969999999,서울 강동구 성내동 64-13 브라운스톤상가2층
35.2369561,128.90412830000002,경남 김해시 어방동 1130-12
37.29187950000001,127.02027010000006,경기 수원시 장안구 영화동 41-7
37.2122918,126.60574799999995,경기 안산시 단원구 대부남동 24-13
37.2122918,126.60574799999995,경기 안산시 단원구 대부남동 24-13
37.6108923,127.13093909999998,경기 구리시 인창동 487-79
33.5037269,126.50627789999999,제주 제주시 용담2동 2731-2
37.3918135,126.65030079999997,인천 연수구 송도동 3-27 운진프라자 101호
35.2070298,126.79935849999993,광주 광산구 오선동 546-7
35.15006150000001,128.993691,부산 사상구 주례1동 690-10
37.5169923,126.76987450000001,경기 부천시 오정구 삼정동 294-2
37.680721,126.55580980000002,경기 김포시 대곶면 석정리 276
36.4566919,127.12510109999994,충남 공주시 산성동 120-2
37.3228465,126.7934646,경기 안산시 단원구 원곡동 999-1
37.4676926,126.70718069999998,인천 남동구 간석4동 216-3
37.4859324,126.89328569999998,서울 구로구 구로3동 우림이비지센터빌딩 2차703호
37.6777022,126.7668913,경기 고양시 일산서구 일산3동 1085 오리온빌딩 지하1층
37.2536521,127.60640280000007,경기 여주군 여주읍 연라리 636-3번지
36.6252036,127.50431040000001,충북 청주시 상당구 금천동 101-3
34.4963319,126.8004353,전남 강진군 대구면 수동리 529번지
35.5346837,129.30777710000007,울산 남구 신정2동 현대아이파크아파트 209동104호
37.5074869,127.1547438,경기 하남시 감이동 201번지
37.2589919,127.06473460000007,경기 수원시 영통구 원천동 409-4
35.2298485,129.15791420000005,부산 해운대구 반송2동 900번지
35.98659,127.04046160000007,전북 익산시 금마면 서고도리 485-18
37.6260931,127.19025699999997,경기 남양주시 일패동 99-7
37.5103908,127.06504419999999,서울 강남구 삼성동 169-10 1층
37.5167101,127.10544110000001,서울 송파구 신천동 11-10 아이스페이스 6층
34.9305967,127.69568170000002,전남 광양시 중동 1845-5
37.5815876,126.91231900000002,서울 서대문구 북가좌동 326-2
37.4941059,127.03299730000003,서울 강남구 역삼동 830-71
37.9421006,127.18832529999997,경기 포천시 신북면 심곡리 260-11
37.5481817,127.04311570000004,서울 성동구 성수동1가 685-295 1층
33.5314285,126.62223240000003,제주 제주시 조천읍 신촌리 1733-2
37.4860027,126.68048590000001,인천 서구 가좌4동 287-4번지
37.4860027,126.68048590000001,인천 서구 가좌4동 287-4번지
37.349507,127.35139939999999,경기 광주시 실촌읍 곤지암리 150-1
37.4941059,127.03299730000003,서울 강남구 역삼동 830-71
35.0985122,128.9930508,부산 사하구 괴정동 951번지
37.6542732,126.67057810000006,경기 김포시 운양동 1026-5번지
37.2801554,127.11465900000007,경기 용인시 기흥구 구성읍 상하리 478-2
36.8818957,126.91072970000005,충남 아산시 인주면 공세리 114-18
37.4994415,126.92001110000001,서울 영등포구 신길동 503-1
37.8303891,127.01277140000002,경기 양주시 광적면 가납리 산2번지
37.6097732,126.71518330000004,경기 김포시 풍무동 92-44
35.1720054,128.06236339999998,경남 진주시 평거동 202-3번지
35.2157094,128.5706957,경남 마산시 상남동 35-1
37.4436227,126.73787519999996,인천 남동구 만수동 1020-6
37.468408,126.96958470000004,서울 관악구 봉천동 28-6 봉천초등학교 내
37.564871,127.00702009999998,서울 중구 광희동1가 193 광성빌딩 2층
35.0548807,126.99350770000001,전남 화순군 화순읍 광덕리 214-1
35.8511565,128.53224490000002,대구 달서구 용산동 213-3
37.2490449,127.03521469999998,경기 수원시 권선구 권선동 1311-6
35.1460431,126.87292179999997,광주 서구 화정3동 897-4번지 6층
37.5749804,126.98422270000003,서울 종로구 관훈동 106 지하
37.3720038,127.14017519999993,경기 성남시 분당구 서현동 312-1
37.7830626,126.84493010000006,경기 파주시 광탄면 신산리 366-1번지
37.4929862,126.87570430000005,서울 구로구 구로1동 3-25
37.5219963,126.8434092,서울 양천구 신월2동 513-1
37.5332573,126.84607410000001,서울 강서구 화곡8동 340-49
37.6251562,126.82172079999998,경기 고양시 덕양구 토당동 43-3
35.8581536,128.59976189999998,대구 중구 대봉동 152-7번지 2층
35.164482,129.1613029,부산 해운대구 우동 587-1 스펀지 3층
35.8199118,128.53331219999995,대구 달서구 상인동 95번지
36.7700947,127.00130760000002,충남 아산시 용화동 용화지구 신도브레뉴아파트현장 50블럭
36.7793366,126.51576649999993,충남 서산시 음암면 부장리 부장리 198-1
36.6252036,127.50431040000001,충북 청주시 상당구 금천동 101-3
37.546797,126.87151059999997,서울 양천구 목2동 507-2 덕수프라자 101호
35.15248589999999,126.85444440000003,광주 서구 치평동 1241-1 상무병원빌딩
37.4678904,126.70057220000001,인천 남동구 간석4동 574-9
35.5396054,129.3343456,울산 남구 달동 1366-6
37.4678904,126.70057220000001,인천 남동구 간석4동 574-9
37.5016837,126.72290870000006,인천 부평구 부평동 433-98
37.3076254,126.8157238,경기 안산시 단원구 초지동 734-14
37.4973946,127.05457790000003,서울 강남구 대치동 938 아르누보2차 1-111호
34.8067875,126.3982499,전남 목포시 용당동 1079-1번지
37.5481817,127.04311570000004,서울 성동구 성수동1가 685-295 1층
37.5074869,127.1547438,경기 하남시 감이동 201번지
37.4909959,126.78126850000001,경기 부천시 원미구 심곡동 370-12
37.5145342,126.77038429999993,경기 부천시 원미구 약대동 94-2
35.95261,129.38850809999997,경북 포항시 남구 오천읍 문덕리 1350
36.8078534,127.11149550000005,충남 천안시 불당동 751
35.5014605,129.4186955,울산 동구 화정동 160-18
37.2673712,127.0007458,경기 수원시 팔달구 매산로1가 애경백화점 3층
35.176105,129.1038747,부산 수영구 망미1동 462-2번지
37.3673454,127.10628500000007,경기 성남시 분당구 정자동 23-1 지파크프라자801호
37.5332573,126.84607410000001,서울 강서구 화곡8동 340-49
37.6542732,126.67057810000006,경기 김포시 운양동 1026-5번지
37.5356183,126.74005220000004,인천 계양구 계산동 1084-3
36.4188679,128.15888960000007,경북 상주시 서문동 5-5
35.2659761,128.7825861,경남 김해시 진례면 고모리 992
37.4800394,126.99943659999997,서울 서초구 방배3동 983-23 2층
37.5750286,126.90554610000004,서울 서대문구 북가좌1동 383-9
36.5682614,128.69835309999996,경북 안동시 옥동 991-2
37.195909,127.3292884,경기 용인시 처인구 원삼면 맹리 526-2
37.195909,127.3292884,경기 용인시 처인구 원삼면 맹리 526-2
36.6118739,127.46694580000008,충북 청주시 흥덕구 산남동 588번지 6층
37.5561329,126.93208909999998,서울 마포구 동교동 185-7
35.1704627,126.80899980000004,광주광산구월곡 531-8 531-8
37.5336338,126.99615829999993,서울 용산구 이태원1동 136-40
37.4678904,126.70057220000001,인천 남동구 간석4동 574-9
37.5921941,127.01790470000003,서울 성북구 동선동1가 85-80 1층
37.2490449,127.03521469999998,경기 수원시 권선구 권선동 1311-6
36.4010148,127.23104560000002,충남 공주시 반포면 봉곡리 436-6
36.7772488,127.76344740000002,충북 괴산군 문광면 신기리 111
37.6542732,126.67057810000006,경기 김포시 운양동 1026-5번지
37.6756389,126.78608310000004,경기 고양시 일산동구 중산동 1802 풍산프라자1층
37.6808992,126.89584590000004,경기 고양시 덕양구 대자동 168-4
37.5043803,126.70271879999996,인천 부평구 산곡동 181-77
35.1615223,126.91848460000006,광주 동구 계림동 562-4번지
37.4413822,127.1343114,경기 성남시 수정구 수진동 20번지
37.3617503,127.93606509999995,강원 원주시 단계동 68-3번지
37.4800394,126.99943659999997,서울 서초구 방배3동 983-23 2층
37.3918292,126.72558260000005,인천 남동구 고잔동 701-7 124B/12L
37.390897,127.93069960000003,강원 원주시 가현동 459-2번지
37.4678904,126.70057220000001,인천 남동구 간석4동 574-9
36.9348229,126.680522,충남 당진군 송산면 삼월리 116-2
37.5331346,127.008422,서울 용산구 한남동 257-10 1층
35.6608627,129.2968098,경북 경주시 외동읍 석계리 781
37.6309762,126.92428380000001,서울 은평구 진관외동 242-32 은평뉴타운2지구 B공구
35.2138519,126.87845879999998,광주 북구 용두동 296
35.7993663,127.144093,전북 전주시 완산구 평화동1가 424
37.5585014,127.07995860000005,서울 광진구 중곡동 647-15번지 1층
37.5145985,127.05302949999998,서울 강남구 삼성동 70-5 영빌딩 3층
35.6608627,129.2968098,경북 경주시 외동읍 석계리 781
36.9181445,127.1342727,충남 천안시 성환읍 천안연암대학 산3-1
36.6113899,127.46754720000001,충북 청주시 흥덕구 산남동 656번지 RS타워 7층
35.9630697,127.00736559999996,전북 익산시 팔봉동 860 경원상사 정문옆
37.6861743,127.8797965,강원 홍천군 홍천읍 연봉리 451-1
37.5481817,127.04311570000004,서울 성동구 성수동1가 685-295 1층
37.5067847,127.16102909999995,경기 하남시 감이동 177-2번지
37.4676926,126.70718069999998,인천 남동구 간석4동 216-3
36.4381213,127.42295260000003,대전 대덕구 덕암동 59-20
33.4735731,126.5452315,제주 제주시 아라동 1728-3
37.5116708,127.02247520000003,서울 강남구 논현동 51-6번지 1층
35.2331899,128.85261660000003,경남 김해시 외동 701-12
37.4463082,126.69845710000004,인천 남동구 구월3동 1373-5번지 1층
36.64362089999999,127.48900879999997,충북 청주시 상당구 북문로3가 38-14 1층
36.1583203,128.3347758,경북 구미시 고아읍 원호리 199-1 번지 원호푸르지오현장 內
37.4861448,126.9291184,서울 관악구 신림동 1432-70
37.5379796,127.12373969999999,서울 강동구 성내동 64-13 브라운스톤상가2층
35.8710457,128.5958359,대구 중구 동성로2가 41-3 1층
37.6179463,126.92110619999994,서울 은평구 대조동 185-72
35.9430234,128.56107729999997,대구 북구 동천동 900-1번지103호
37.0794249,127.12996729999998,경기 안성시 원곡면 산하리 205-2
33.5128794,126.525979,제주 제주시 일도1동 1476-7
37.4929862,126.87570430000005,서울 구로구 구로1동 3-25
37.5585014,127.07995860000005,서울 광진구 중곡동 647-15번지 1층
35.1668538,128.982163,부산 사상구 괘법동 523-14
34.8067875,126.3982499,전남 목포시 용당동 1079-1번지
37.4678904,126.70057220000001,인천 남동구 간석4동 574-9
37.3970508,126.72258250000004,인천 남동구 고잔동 654-1 109B/2L
37.5561329,126.93208909999998,서울 마포구 동교동 185-7
37.8315403,127.50988269999993,경기 가평군 외서면 청평리 652-5
35.880357,129.22547150000003,경북 경주시 용강동 1276-1번지
37.2497371,127.05727300000001,경기 수원시 영통구 신동 340-25 1층101호
37.4918318,127.01372679999997,서울 서초구 서초동 1575-3 12층
37.5534569,126.97354599999994,서울 용산구 동자동 12 게이트타워2층
37.3854206,127.12078780000002,경기 성남시 분당구 서현동 272-3
35.8418102,129.18663349999997,경북 경주시 충효동 2997-5
37.1038228,126.98026470000002,경기 화성시 양감면 사창리 54-6
37.5710628,127.02102079999997,서울 중구 황학동 2198 롯데캐슬베네치아7층
37.3888888,126.94736790000002,경기　안양시 동안구　호계동 903-8 3층 903-8 3층
37.4935978,127.0622998,서울 강남구 대치동 507-1 대치퍼스트빌딩1층
37.5278026,127.12160389999997,서울 강동구 성내1동 453-2번지
36.6339315,127.44845110000006,충북 청주시 흥덕구 복대2동 849-2번지
37.3352072,126.70360060000007,경기 시흥시 정왕동 1696-5 시화공단1마605-3호
36.21080389999999,127.10800829999994,충남 논산시 덕지동 29
35.1371013,126.90137819999995,광주 남구 백운동 640-1 번지
37.4144711,127.15060719999997,경기 성남시 중원구 도촌동 566번지 동강프라자404호
35.9581735,126.70558920000008,전북 군산시 지곡동 494-3 번지
37.4739817,126.80384470000001,경기 부천시 소사구 괴안동 238-2호 1층
37.2071786,127.06569089999994,경기 화성시 반송동 42-8 파크프라자
36.8218769,127.12360379999996,충남 천안시 백석동 882 백석종합상가 305호
37.3994384,126.96194250000008,경기 안양시 동안구 관양2동 1122-5 청룡빌딩 2층
33.4945858,126.58696269999996,제주 제주시 봉개동 2586 한질곳 하우스 1층
37.4719145,126.89766020000002,서울 금천구 독산동 152-6번지
37.4719145,126.89766020000002,서울 금천구 독산동 152-6번지
37.529626,126.96347000000003,서울 용산구 한강로3가 용산역민자역사 40-1
37.4776207,126.9869248,서울 서초구 방배2동 475-29
35.3115719,129.17781549999995,부산 기장군 정관면 달산리 938-14
37.486602,127.02130369999998,서울 서초구 서초1동 1605-9
37.5322101,126.86342689999992,서울 강서구 화곡4동 781-1번지 1층
37.5560315,126.94566970000005,서울 마포구 대흥동 12-172번지2층
37.5053416,126.94939160000001,서울 동작구 상도동 420번지대우유로카운티상가2층201
35.6608627,129.2968098,경북 경주시 외동읍 석계리 781
37.6344634,126.60689589999993,경기 김포시 대곶면 대능리 112-8
36.7718561,127.01976850000005,충남 아산시 풍기동 274-2
37.6398268,126.83097950000001,경기 고양시 덕양구 화정동 916-3 303호
35.0941647,128.84343490000003,부산 강서구 송정동 1565-2 번지
37.3908894,127.0967915,경기 성남시 분당구 판교동 택지개발지구 A20-1BL
37.3908894,127.0967915,경기 성남시 분당구 판교동 택지개발지구 A20-1BL
37.5322771,127.0652417,서울 광진구 노유2동 90-3 본빌딩5층
33.5128794,126.525979,제주 제주시 일도1동 1476-7
37.557984,126.93842689999997,서울 서대문구 창천동 13-2. 3층
37.6090598,126.9058665,서울 은평구 구산동 41-1번지
35.8357465,127.13930559999994,전북 전주시 덕진구 금암동 2가 1588-7번지
37.5663914,126.80537040000002,서울 강서구 방화동 712-1 스카이 시티몰 3층
35.2818353,128.7896564,경남 김해시 한림면 병동리 653-1번지
35.2818353,128.7896564,경남 김해시 한림면 병동리 653-1번지
35.9967994,129.35835550000002,경북 포항시 남구 연일읍 오천리 181-23
37.8229535,127.13154680000002,경기 포천시 소흘읍 이동교리 192-1
37.5240211,127.02789370000005,서울 강남구 신사동 583-3 103호
35.8618178,128.60739620000004,대구 중구 대봉1동 1-1 23필지
35.8440283,128.5139484,대구 달서구 장동 333-13
37.2834501,127.45658600000002,경기 이천시 갈산동 644번지
37.5029214,126.76370640000005,경기 부천시 원미구 중동 1159-2
37.5362246,127.14329229999998,서울 강동구 길동 403
37.5356183,126.74005220000004,인천 계양구 계산동 1084-3
35.9632339,126.98892820000003,전북 익산시 부송동 697번지
36.79304610000001,127.16519849999997,충남 천안시 구성동 265번지
33.5314285,126.62223240000003,제주 제주시 조천읍 신촌리 1733-2
35.2818353,128.7896564,경남 김해시 한림면 병동리 653-1번지
37.3959661,126.63884089999999,인천 연수구 송도동 23-3번지 센트럴파크 현장내
37.5534569,126.97354599999994,서울 용산구 동자동 12 게이트타워2층
37.34860159999999,126.7271088,경기 시흥시 정왕동 시화공단 2라 203호
36.1203277,128.12792119999995,경북 김천시 용두동 87번지
35.5593356,129.25063209999996,울산 울주군 범서읍 굴화리 468
37.6871623,126.77949860000001,경기 고양시 일산동구 중산동 1580-1
35.5376882,128.49697049999997,경남 창녕군 창녕읍 교하리 222-8
35.0941647,128.84343490000003,부산 강서구 송정동 1565-2 번지
36.6370615,127.48868760000005,충북 청주시 상당구 북문로2가 54-2
33.4787963,126.46833889999994,제주 제주시 노형동 2372-4
37.4229778,127.75242320000007,경기 양평군 양동면 쌍학리 247-12 동진빌딩2층
37.4742767,126.91799689999993,서울 관악구 신림12동 607-73
35.913223,128.54807200000005,대구 북구 태전동 1112번지 3층
35.8691618,128.54954020000002,대구 서구 중리동 33-1번지
35.2139317,129.11043169999994,부산 금정구 금사동 145-9번지
37.4909959,126.78126850000001,경기 부천시 원미구 심곡동 370-12
35.17482080000001,129.19604230000004,부산 해운대구 송정동 444-5
37.4413822,127.1343114,경기 성남시 수정구 수진동 20번지
37.55703159999999,126.93712519999997,서울 서대문구 창천동 18-10번지
37.3637021,126.96038599999997,경기 안양시 동안구 호계3동 804-11 유환프라자1층
37.3959661,126.63884089999999,인천 연수구 송도동 23-3번지 센트럴파크 현장내
37.50659470000001,127.0483418,서울 강남구 삼성2동 140-3 1층
37.2346168,127.2032759,경기 용인시 처인구 김량장동 295-1 위너스프라자301호
37.557984,126.93842689999997,서울 서대문구 창천동 13-2. 3층
37.5117041,127.05434319999995,서울 강남구 삼성동 150 진성빌딩 지하1층
37.7519171,127.06971399999998,경기 의정부시 금오동 473-2 삼성프라자704호
35.1651335,126.91932700000007,광주 북구 우산동 555-6
37.487936,126.78222740000001,경기 부천시 원미구 심곡동 192-12
35.2548309,128.51392869999995,경남 마산시 내서읍 중리 700-1
37.4969534,126.95260439999993,서울 동작구 상도동 475-2번지
37.4946558,127.03006579999999,서울 강남구 역삼동 831-3 한국빌딩3층
35.1982207,126.8286948,광주 광산구 수완동 수완택지개발C4-2블럭 상가 1층 4호
37.3925783,126.97512260000008,경기 안양시 동안구 평촌동 96-2 로데오타운 2층
37.5156759,127.01779639999995,서울 서초구 잠원동 14-17라전빌딩401호
37.5134776,127.04229889999999,서울 강남구 논현동 267-2 동천빌딩 2층
36.353833,126.6100884,충남 보령시 동대동 679-1번지
36.7401802,127.4565758,충북 청원군 오창읍 창리 3-2
36.3333553,127.38247920000003,대전 서구 괴정동 91-6번지
35.8224332,127.14951169999995,전북 전주시 완산구 경원동3가 99번지
36.3583025,127.38174290000006,대전 서구 둔산동 949번지 신협중앙회사옥 13층
37.2485981,126.94489610000005,경기 화성시 매송면 천천리 163
35.2528726,128.76653069999998,경남 김해시 진례면 송현리 294
35.9122436,127.06910790000006,전북 완주군 삼례읍 후정리 414-14
37.4356393,127.17752740000003,경기 성남시 중원구 상대원동 369-3
37.53295800000001,127.06796199999997,서울 광진구 노유동 855 이튼타워리버3 2층
37.7175017,127.18094789999998,경기 남양주시 진접읍 장현리 634-4 121
36.9631698,127.87034029999995,충북 충주시 이류면 만정리 182-6
37.6966049,126.73934069999996,경기 고양시 일산서구 덕이동 1047-1
35.1268447,126.8796486,광주 서구 풍암동 1119
37.5376127,127.07261829999993,서울 광진구 자양3동 227-7 스타시티몰2층
37.2661462,127.00168630000007,경기 수원시 팔달구 매산로1가 57-104 새수원빌딩5층
37.2661462,127.00168630000007,경기 수원시 팔달구 매산로1가 57-104 새수원빌딩5층
35.5038356,129.19476899999995,울산 울주군 웅촌면 대복리 산 64-20번지
37.806146,126.97284400000001,경기 양주시 백석읍 오산리 639
37.0911057,126.92768479999995,경기 화성시 양감면 대양리 708-12번지
37.5724705,127.06587960000002,서울 동대문구 답십리동 724번지 1층
35.8997157,128.56678120000004,대구 북구 노원동3가 187-11
37.5070929,127.06468719999998,서울 강남구 대치동 1001-1 일원빌딩3층
37.48120249999999,126.7965534,경기 부천시 소사구 소사본동 65-23 진우공업안
35.1581374,126.8820207,광주 서구 화정1동 12-45 1층
37.5046692,127.02383659999998,서울 서초구 반포1동 748-12
37.5138493,127.05151419999993,서울 강남구 삼성2동 50현대힐스테이츠2차상가1층
37.4856641,126.89550209999993,서울 구로구 구로3동 191-7번지 에이스테크노8차 1209호
37.7401557,127.05594769999993,경기 의정부시 신곡동 560
35.5385227,129.33575569999994,울산 남구 삼산동 1474-13번지 미라보빌딩5층
35.1348104,126.9538923,광주 동구 운림동 297번지
35.157426,129.05704149999997,부산 부산진구 부전동 503-1
36.8163435,127.08504019999998,충남 아산시 탕정면 동산리 45
35.0808983,128.96168309999996,부산 사하구 장림동 1145번지
37.4278254,126.77945410000007,경기 시흥시 방산동 122번지
33.5166598,126.52462650000007,제주 제주시 삼도2동 1192-21
37.5116708,127.02247520000003,서울 강남구 논현동 51-6번지 1층
34.7987768,126.43810540000004,전남 목포시 옥암동 1099-15번지
37.4795693,126.95217090000006,서울 관악구 봉천4동 863-13 보성빌딩 1층
37.5600517,126.75978529999998,인천 계양구 동양동 16BL 명일프라자 105
37.5600517,126.75978529999998,인천 계양구 동양동 16BL 명일프라자 105
37.4833531,126.90141229999995,서울 구로구 구로3동 1125-5번지 1층
37.3720038,127.14017519999993,경기 성남시 분당구 서현동 312-1
35.2298485,129.15791420000005,부산 해운대구 반송2동 900번지
35.9307397,126.95642399999997,전북 익산시 인화동2가 54번지(제이파크 상가내)
37.5469262,126.93899450000004,서울 마포구 신수동 47-17 우리빌딩1층
36.6339315,127.44845110000006,충북 청주시 흥덕구 복대2동 849-2번지
37.4320198,127.1734179,경기 성남시 중원구 상대원동 500-2번지 1층
37.016124,127.09282830000006,경기 평택시 동삭동 388-13번지
37.5553995,126.90863890000003,서울 마포구 망원동 380-2
35.2424939,129.09156380000002,부산 금정구 부곡동 64-33 성림빌딩2층
37.32578160000001,126.75874810000005,경기 안산시 단원구 신길동 1054-10
36.9868606,127.93897170000002,충북 충주시 연수동 1369 효성신협2F
37.3355426,126.72367669999994,경기 시흥시 정왕동 1267-2 2다503호
37.5623099,126.97867870000005,서울 중구 북창동 93-43 한성수력산업 지하1층
37.5502581,126.67438579999998,인천 서구 연희동 683
36.3278465,127.42167949999998,대전 중구 선화동 285-1
36.1115484,128.33689979999997,경북 구미시 형곡동 145-22제1층 제1호
37.2700194,127.06358909999994,경기 수원시 영통구 원천동 177-1
37.5581881,126.97312,서울 중구 남대문로5가 6-9번지
37.5224767,126.92457309999998,서울 영등포구 여의도동 26-4 교보증권빌딩6층
36.7401802,127.4565758,충북 청원군 오창읍 창리 3-2
36.3608888,127.34647259999997,대전 유성구 궁동 487-4 남양빌딩 101호 1층
37.5156759,127.01779639999995,서울 서초구 잠원동 14-17라전빌딩401호
37.7072439,127.11852859999999,경기 남양주시 별내면 청학리 438
36.9911729,127.93436789999998,충북 충주시 연수동 665-3
37.541731,126.87325759999999,서울 양천구 목동 926번지 목동트라팰리스 웨스턴에비뉴 3층 304호
35.1467763,128.98835370000006,부산 사상구 학장동 271-4
37.5444214,127.17620590000001,경기 하남시 초일동 11-5
37.4966634,126.8993921,서울 영등포구 대림동 693-1 한경빌딩 308호
37.4845637,126.79269920000002,경기 부천시 원미구 소사동 17-13
37.5600517,126.75978529999998,인천 계양구 동양동 16BL 명일프라자 105
37.2011483,126.86623150000003,경기 화성시 비봉면 자안리 722-1
37.5558225,126.93793470000003,서울 서대문구 창천동 29-81 르메이에르 103-1호
37.48176910000001,126.80648389999999,경기 부천시 소사구 괴안동 3-26번지 2층
37.3854206,127.12078780000002,경기 성남시 분당구 서현동 272-3
35.8552475,129.22284420000005,경북 경주시 동천동 794-9
37.5100193,127.05448090000004,서울 강남구 삼성동 127-6
37.0861031,127.17823520000002,경기 안성시 원곡면 성주리 10-9
37.5100193,127.05448090000004,서울 강남구 삼성동 127-6
37.6790543,127.20711089999998,경기 남양주시 오남읍 오남리470
34.8597639,128.42682590000004,경남 통영시 무전동 1030-3번지 덕오빌딩 5층
35.1348104,126.9538923,광주 동구 운림동 297번지
35.135678,129.10001490000002,부산 남구 대연3동 62-5 명빌딩 B 1층
37.5413371,127.06717900000001,서울 광진구 화양동 48-3 웅진빌딩
35.8654951,127.11473079999996,전북 전주시 덕진구 송천동1가 800-9
37.387625,127.12314029999993,경기 성남시 분당구 서현동 254-4 204호
37.2189692,126.85334220000004,경기 화성시 비봉면 양노리 668-7
37.5607688,126.80739219999998,서울 강서구 공항동 150 국내선1층
35.1333826,126.90681240000004,광주 남구 주월동 1264-5
35.6472503,127.51825919999999,전북 장수군 장수읍 장수리 512-23
37.5581317,127.03544480000005,서울 성동구 행당동 140 레몬프라자 113호
37.7401557,127.05594769999993,경기 의정부시 신곡동 560
37.053047,127.06114060000004,경기 평택시 이충동 378-2
37.4880931,127.02782690000004,서울 서초구 서초동 1342-3
36.8042758,127.1395685,충남 천안시 봉명동 39-22
37.2890465,127.0016071,경기 수원시 장안구 영화동 400-5번지
37.6411341,126.78915280000001,경기 고양시 일산동구 백석동 1323 동문굿모닝1차811호
37.749572,127.08030669999994,경기 의정부시 용현동 546번지
37.4698492,126.46175040000003,인천 중구 운서동 2165-160화물터미널B
35.1348104,126.9538923,광주 동구 운림동 297번지
35.9570423,126.55432640000004,전북 군산시 오식도동 852-12
35.1348104,126.9538923,광주 동구 운림동 297번지
37.5063697,126.72047969999994,인천 부평구 청천동 302-24
35.8471354,128.76619660000006,경북 경산시 압량면 부적리 151번지 CJ센타내
37.3912195,126.95301799999993,경기 안양시 동안구 호계동 1041-1번지 4층
37.5616932,126.98228429999995,서울 중구 충무로1가 21번지
37.3876392,126.82966590000001,경기 시흥시 물왕동 258
35.539238,129.2540285,울산 남구 무거2동 568-6
33.43521339999999,126.26696179999999,제주 제주시 한림읍 수원리 270-7
35.6178974,127.2886469,전북 임실군 임실읍 이도리 78번지
37.5677533,127.08471350000002,서울 광진구 중곡3동 168-8
34.8295453,128.42144970000004,경남 통영시 도남동 479-2
37.4833531,126.90141229999995,서울 구로구 구로3동 1125-5번지 1층
37.4833531,126.90141229999995,서울 구로구 구로3동 1125-5번지 1층
33.44904,126.40147630000001,제주 제주시 애월읍 유수암리 2151-1
37.7545213,128.88976249999996,강원 강릉시 홍제동 15-2번지
37.6507778,126.77792309999995,경기 고양시 일산구 장항동 896-1 동양생명 2층
37.5552152,127.1403292,서울 강동구 암사동 414-18롯데캐슬상가2층
37.2149016,127.04431939999995,경기 화성시 병점동 844-7번지 2층
35.983636,129.34161100000006,경북 포항시 남구 연일읍 인주리 143-1
37.6902692,126.73187529999996,경기 고양시 일산서구 덕이동 1330-4
37.5600517,126.75978529999998,인천 계양구 동양동 16BL 명일프라자 105
37.5600517,126.75978529999998,인천 계양구 동양동 16BL 명일프라자 105
37.3035105,127.0074902,경기 수원시 장안구 조원동 893 아울렛타운 4층
37.1340647,126.80089859999998,경기 화성시 우정읍 주곡리 161-25
37.6180937,126.92037460000006,서울 은평구 대조동 198-4
37.6180937,126.92037460000006,서울 은평구 대조동 198-4
37.6790543,127.20711089999998,경기 남양주시 오남읍 오남리470
37.6790543,127.20711089999998,경기 남양주시 오남읍 오남리470
35.3078018,128.73485789999995,경남 김해시 진영읍 진영리 1621-10
35.8540832,127.11907580000002,전북 전주시 덕진구 송천동1가 289-9
37.39494750000001,127.12587280000002,경기 성남시 분당구 이매동 115-2 이수프라자4층
36.6352039,127.49033129999998,청주시 상당구 북문로1가 15-2 15-2
37.5925292,127.19738440000003,경기 남양주시 삼패동 349-11번지
37.4932342,126.91971149999995,서울 동작구 신대방2동 395번지
37.517906,127.03860199999997,서울 강남구 논현2동 110-2번지 2층
37.2149016,127.04431939999995,경기 화성시 병점동 844-7번지 2층
37.5106814,127.12023339999996,서울 송파구 방이1동 132-3 202호
37.5122839,126.94562599999995,서울 동작구 노량진1동 125-32호
37.48414229999999,127.00996989999999,서울 서초구 서초동 1533 한신리빙타워104호
37.2132231,127.04066880000005,경기 화성시 진안동 877-4 아시아빌딩 302호
35.1565963,126.8509295,광주 서구 치평동 1210번지
35.3311204,129.01169030000005,경남 양산시 물금읍 범어리 2680-1
37.515664,127.16309479999995,경기 하남시 감일동 2-3
35.1443848,126.87392679999994,광주 서구 화정동 808-11
37.5629038,126.98548690000007,서울 중구 명동2가 52
35.5590161,129.27425659999994,울산 중구 다운동 515-2
37.7379142,126.78284770000005,경기 파주시 조리읍 능안리 387-7번지
35.2197859,128.68572169999993,경남 창원시 상남동 33번지 레알주차장2층
35.7223292,126.74093570000002,전북 부안군 부안읍 봉덕리 910
37.6598694,126.77007860000003,경기 고양시 일산구 장항동 770번지3층
35.985016,128.5476321,경북 칠곡군 동명면 송산리 101-2번지
37.5100193,127.05448090000004,서울 강남구 삼성동 127-6
35.1460218,126.79014159999997,광주광산구소촌 629-5 629-5번지
37.461541,126.88024110000003,경기 광명시 하안동 51번지 광명태흥빌딩 103호
37.5342544,126.99358949999998,서울 용산구 이태원1동 128-2 베스킨라빈스
37.3079525,127.00369739999996,경기 수원시 장안구 송죽동 399-42
37.5175857,127.02231319999999,서울 강남구 신사동 514-10번지
37.3365201,127.95319619999998,강원 원주시 개운동 323-1번지일원
37.6542732,126.67057810000006,경기 김포시 운양동 1026-5번지
35.8304651,128.62400939999998,대구 수성구 지산동 1055-5번지
37.6023178,126.65878350000003,인천 서구 마전동 697-6호 세훈빌딩1층
35.2302512,129.08868640000003,부산 금정구 장전동 293-175~6
37.83926040000001,126.97896860000003,경기 양주시 광적면 석우리 270-3
37.5607688,126.80739219999998,서울 강서구 공항동 150 국내선1층
37.5259614,127.03408860000002,서울 강남구 신사동 634-8
35.3128729,129.0284904,경남 양산시 동면 석산리 516-12
37.422379,127.32190939999998,경기 광주시 초월읍 무갑리 358-3
35.3362561,129.03693750000002,경남 양산시 남부동 469-11
37.1465561,127.07476040000006,경기 오산시 원동 813-5 101호
37.5046112,127.05278810000004,서울 강남구 대치동 890-34
37.7401557,127.05594769999993,경기 의정부시 신곡동 560
37.7377765,126.97726560000001,경기 양주시 장흥면 부곡리 140-1
37.5640201,126.99537379999992,서울 중구 인현동2가 100 3층
37.4860027,126.68048590000001,인천 서구 가좌4동 287-4번지
37.316084,126.85001829999999,경기 안산시 상록구 성포동 586 1F
37.4528991,126.63542559999996,인천 남구 용현동 629-108번지 1층
35.1615123,129.06360440000003,부산 부산진구 전포동 607-1 적십자회관 7층 702호
33.3777276,126.36042670000006,제주 북제주군 애월읍 어음리 산60-1번지
37.5969022,127.09467629999995,서울 중랑구 망우동 508-52번지
37.3908894,127.0967915,경기 성남시 분당구 판교동 택지개발지구 A20-1BL
34.88498360000001,128.41769780000004,경남 통영시 광도면 죽림리 1570-39
37.4170878,126.85335480000003,경기 광명시 가학동 534번지
37.6218043,126.91853000000003,서울 은평구 갈현동 439
35.1443848,126.87392679999994,광주 서구 화정동 808-11
35.7993663,127.144093,전북 전주시 완산구 평화동1가 424
37.5035285,126.76385929999992,경기 부천시 원미구 중동 1158-3 우암프라자101~107호
37.6975441,127.20133609999993,경기 남양주시 오남읍 양지리 106-4
36.299108,127.37884570000006,대전 서구 복수동 619번지
36.9912599,127.92895750000002,충북 충주시 금능동 703
37.5035285,126.76385929999992,경기 부천시 원미구 중동 1158-3 우암프라자101~107호
37.5009052,126.77349630000003,경기 부천시 원미구 중동 1144-4 2층 현해탑프라자204호
37.4009174,127.19269180000003,경기 광주시 직동 87-1
37.461541,126.88024110000003,경기 광명시 하안동 51번지 광명태흥빌딩 103호
35.8873148,128.56306760000007,대구 서구 비산7동 1273-9
35.1467193,126.92025420000004,광주 동구 광산동 13번지
37.6966049,126.73934069999996,경기 고양시 일산서구 덕이동 1047-1
37.5406628,127.20695720000003,경기 하남시 신장동 415-44 1층 101호
37.4960371,126.95341559999997,서울 동작구 상도5동 489-5
37.4938946,127.06290790000003,서울 강남구 대치1동 507-2 대치퍼스트1층 119~120호
37.4009174,127.19269180000003,경기 광주시 직동 87-1
37.4098548,126.71388860000002,인천 남동구 논현동 564-1번지 주공상가
36.344829,127.38089250000007,대전 서구 탄방동 608 국민연금대전회관빌딩
36.1115484,128.33689979999997,경북 구미시 형곡동 145-22제1층 제1호
36.79304610000001,127.16519849999997,충남 천안시 구성동 265번지
37.5265283,127.03597519999994,서울 강남구 신사동 644-22 1층
37.5116708,127.02247520000003,서울 강남구 논현동 51-6 3층
35.9977992,129.05731660000004,경북 영천시 고경면 동도리 185
37.4998638,127.02862660000005,서울 강남구 역삼1동 818-5 혜진빌딩지하1.2층
37.5503687,126.9213545,서울 마포구 서교동 407-21
35.15924,129.14507630000003,부산 해운대구 우동 1406번지 홈에버지하1층
37.5747055,127.01864160000002,서울 종로구 숭인동 234-111
37.3977802,126.71160699999996,인천 남동구 고잔동 246-14번지
37.5629038,126.98548690000007,서울 중구 명동2가 52
35.7938896,127.42033620000007,전북 진안군 진안읍 군상리 973-1번지
36.5573058,127.53213410000001,충북 청원군 강외면 정중리 415-2
37.4052979,126.77495709999994,경기 시흥시 포동 79-7
37.3811682,126.95253290000005,경기 안양시 동안구 호계2동 호계프라자 7층
35.845115,128.61317140000006,대구 수성구 중동 98-5번지
35.2210885,126.94871009999997,광주 북구 운정동 251-1
35.2162293,126.82584480000003,광주 광산구 도천동 3-57번지
35.1355306,127.87141589999999,경남 하동군 북천면 화정리 461-1
36.077214,129.39221099999997,경북 포항시 북구 장성동 1447-11번지
37.5228322,127.03642100000002,서울 강남구 신사동 651-16 호림아트센타 10-13층
37.30331839999999,126.76754789999995,경기 안산시 단원구 목내동 504성보화학내201동
37.5524438,126.92313650000006,서울 마포구 서교동 358-36 1층
37.5315795,126.84652419999998,서울 강서구 화곡1동 343-52번지
37.3774516,127.11439289999998,경기 성남시 분당구 수내동 16-1 국민은행4층
37.6715085,126.75897299999997,경기 고양시 일산서구 주엽동 18-2번지 서현프라자416호
37.5068256,126.75795749999997,경기 부천시 원미구 상동 538-1효성프라자601.602호
36.3975282,127.8727811,경북 상주시 화남면 820
37.0134109,127.14480159999994,경기 안성시 원곡면 반제리 142-4
36.0338331,129.3646721,경북 포항시 북구 죽도동 42-17
35.669666,128.44937189999996,대구 달성군 유가면 유곡리 850-2
37.4841999,126.93175919999999,서울 관악구 신림본동 11-12번지
37.1434751,126.98469879999993,경기 화성시 정남면 계향리 545-11번지
37.3414279,126.71291350000001,경기 시흥시 정왕동 1251-3 시화공단1다504호
37.3400865,126.74394340000003,경기 시흥시 정왕1동 시화공단 3다 301호
37.5263817,126.74298950000002,인천 계양구 서운동 55-155
33.5092396,126.52029470000002,제주 제주시 삼도2동 803-25
35.172709,126.90890330000002,광주 북구 용봉동 247-12번지
35.8357465,127.13930559999994,전북 전주시 덕진구 금암동 2가 1588-7번지
36.3504119,127.38454750000005,대전광 서구   도마동 172-15 2층 172-15 2층
37.5908815,127.01071019999995,서울 성북구 동소문동4가 75-2 부라다리빙텔2층
35.1348104,126.9538923,광주 동구 운림동 297번지
36.299108,127.37884570000006,대전 서구 복수동 619번지
35.2446694,128.64950469999997,경남 창원시 의창구 봉곡동 31-4 성우프라자5층
37.3455855,127.11180919999993,경기 성남시 분당구 구미동 144-4 하나빌딩 5층
37.4326131,127.15915819999998,경기 성남시 중원구 상대원동 5442-1 크란츠테크노801호
37.4075188,126.7056,인천 남동구 논현동 601-3번지
37.2267813,126.70087969999997,경기 화성시 송산면 중송리 195-12
33.4899806,126.49567760000002,제주 제주시 연동 291-44 현대빌딩5층
35.9917943,128.39897240000005,경북 칠곡군 왜관읍 왜관리 237-21
37.1392374,126.8999983,경기 화성시 향남면 장짐리 360-1 상가 107호
37.5558225,126.93793470000003,서울 서대문구 창천동 29-81 신촌르메이에르5차 1층
36.0577481,129.35462759999996,경북 포항시 북구 우현동 1토지구획사업지구내15-1.2.3B
36.8240345,127.1110013,충남 천안시 백석동 719번지
35.2107893,126.8799573,광주 북구 양산동 743
37.4995015,126.7761147,경기 부천시 원미구 중동 1133-5 205호
37.4945275,126.85591610000006,서울 구로구 개봉2동 403-15 국일오피스텔 306호
35.3281775,128.5170862,경남 함안군 칠서면 무릉리 127
35.942189,128.83439969999995,경북 경산시 와촌면 소월리 46-8
37.4872829,127.10310879999997,서울 강남구 수서동 724 로즈데일오피스 6층
35.1528429,126.882924,광주　서구　농성2동 671-65 네오빌딩2층 671-65 네오빌딩2층
35.1554398,128.94540140000004,부산 강서구 대저2동 4087
37.7853574,128.87693089999993,강원 강릉시 난곡동 117-8
37.7871479,126.79343889999996,경기 파주시 월롱면 위전리 531-9번지
37.0856994,127.05089410000005,경기 평택시 신장동 370-2
37.47179879999999,126.86920020000002,경기 광명시 철산3동 373번지 대우건설 현장내
37.4698492,126.46175040000003,인천 중구 운서동 2165-160화물터미널B
36.326783,127.3977688,대전 중구 태평동 335-10번지 동성빌딩2층
37.6180937,126.92037460000006,서울 은평구 대조동 198-4
35.8666562,127.11501240000007,전북 전주시 덕진구 송천동1가 561-1
37.54341910000001,126.71428620000006,인천 계양구 계산동 763-30 캐피탈호텔옆
34.8267561,128.42249149999998,경남 통영시 도남동 484-4.성원아파트상가104호
37.547194,126.87384040000006,서울 강서구 염창동 282-26
37.4713935,126.89195429999995,서울 금천구 독산동 302-6번지 1층
36.2091529,127.09504330000004,충남 논산시 반월동 33-20 번지
37.3593642,127.15502270000002,경기 광주시 오포읍 신현리 762
35.9431519,126.97101950000001,전북 익산시 신흥동 806-12번지
35.1738958,129.18108699999993,부산 해운대구 좌동 1433-4
37.384297,127.13360510000007,경기 성남시 분당구 서현동 198-1 동양프라자 A동101호
35.108609,126.82726000000002,광주 서구 서창동 270 외3필지
37.5413371,127.06717900000001,서울 광진구 화양동 48-3 웅진빌딩
36.9826259,127.91773820000003,충북 충주시 칠금동 842
36.9826259,127.91773820000003,충북 충주시 칠금동 842
35.8666562,127.11501240000007,전북 전주시 덕진구 송천동1가 561-1
37.4209914,126.84127030000002,경기 시흥시 무지내동 139-1
37.5495622,126.93175389999999,서울 마포구 창전동 15-4
37.55703159999999,126.93712519999997,서울 서대문구 창천동 18-10번지
37.5547085,127.15463060000002,서울 강동구 명일동 46-2
37.4933099,127.0619031,서울 강남구 대치동 507번지 B101호
35.8224332,127.14951169999995,전북 전주시 완산구 경원동3가 99번지
37.4349854,126.79741809999996,경기 시흥시 은행동 240-2
35.1181886,128.89199710000003,부산 강서구 녹산동 97-20
37.5591938,126.99713410000004,서울 중구 필동3가 28-31번지
36.8163435,127.08504019999998,충남 아산시 탕정면 동산리 45
37.5409583,126.96001980000005,서울 용산구 효창동 130-2 아이딜APT 103호
37.4817399,126.88178949999997,서울 금천구 가산동 459-11 JEI PLATZ 915호
36.5988023,126.67433219999998,충남 홍성군 홍성읍 고암리 572-3번지 (홍성의료원내)
35.2035324,129.11583930000006,부산 해운대구 반여4동 1190-1번지 우방신세계타운 후문출입구
35.0808983,128.96168309999996,부산 사하구 장림동 1145번지
37.5607688,126.80739219999998,서울 강서구 공항동 150번지 국제화물청사 4번게이트 뒤쪽
35.8010513,128.48484069999995,대구 달성군 화원읍 성산리 731-1
37.5123615,126.67239489999997,인천 서구 석남동 455-7
37.5069774,126.75389229999996,경기 부천시 원미구 상동 535-3 썬프라자5층502호
37.5263817,126.74298950000002,인천 계양구 서운동 55-155
37.5029833,126.89602059999993,서울 영등포구 대림3동 784 성림빌딩 201호
37.5731149,126.81575010000006,서울 강서구 방화동 282-1 3층
37.4788922,126.94766579999998,서울 관악구 봉천동 1574-1 생모리츠110-111호
37.6740454,126.56775970000001,경기 김포시 대곶면 석정리 86-5
35.8550972,128.5078496,대구 달서구 이곡동 1244 번지 메가타운 1층 110호
36.7723813,127.13700369999992,충남 천안시 신방동 228-18
37.2573255,127.06003169999997,경기 수원시 영통구 매탄동 494-7 B동1층
35.9093239,128.80000819999998,경북 경산시 하양읍 경일대학교 33번지 목련관
37.9539438,126.91979220000007,경기 파주시 적성면 마지리 63번지
37.5590543,126.90506340000002,서울 마포구 망원동 479-68
35.2131591,128.59910020000007,경남 마산시 봉암동 660-105
37.5705311,126.98979150000002,서울 종로구 종로3가 5번지 파고다귀금속상가 23호
37.9421006,127.18832529999997,경기 포천시 신북면 심곡리 260-11
37.4816036,126.68409650000001,인천 서구 가좌동 468-8
36.3577833,127.34800050000001,대전 유성구 봉명동 649-5
35.2475336,128.62081749999993,경남 창원시 팔용동 37-4
33.483274,126.47108760000003,제주 제주시 노형동 2513-1
37.54464,126.83515060000002,서울 강서구 화곡3동 1019번지
35.1757704,126.82872559999998,광주 광산구 신가동 766-1
37.47852210000001,126.95315900000003,서울 관악구 봉천동 1598-10 삼우아파트현장
37.6906362,126.4690349,인천 강화군 불은면 삼동암리 337-4
37.5439688,127.17384809999999,경기 하남시 초이동 176-5
37.5274588,126.86200789999998,서울 양천구 신정동 890-5 지하
35.7289473,126.73689109999998,전북 부안군 부안읍 동중리 122-4 우송빌딩 1층
37.1513705,128.19321650000006,충북 제천시 신월동 251
37.5679872,126.97716349999996,서울 중구 태평로1가 파이낸스빌딩 2층
37.3400221,126.8717805,경기 안산시 상록구 부곡동 256번지
37.3936334,127.28440790000002,경기 광주시 초월읍 대쌍령리 373-2
35.8552475,129.22284420000005,경북 경주시 동천동 794-9
37.527677,126.72280049999995,인천 계양구 작전동 422-3
35.1528429,126.882924,광주　서구　농성2동 671-65 네오빌딩2층 671-65 네오빌딩2층
37.5313545,127.17352559999995,경기 하남시 광암동 16-1
37.1980817,126.98346330000004,경기 화성시 봉담읍 수기리 11-21
35.1910651,128.70291739999993,경남 창원시 성주동 143번지 루이젠하우스105동201호
37.4857462,127.02055730000006,서울 서초구 서초동 1443-13.1층
36.9294267,127.06023210000001,충남 아산시 둔포면 운용리 315-4
36.3556041,127.43166020000001,대전 동구 용전동 42-21
37.6557011,126.77195719999997,경기 고양시 일산동구 장항동 867 번지 웨스턴돔T1-912호
37.6538133,127.06021620000001,서울 노원구 상계동 731-5 4층
36.4520209,127.42913810000005,대전 대덕구 신탄진동 117-39 드림빌딩3층
36.9635371,127.24918580000008,경기 안성시 미양면 구수리 264-7번지
37.526497,127.04610120000007,서울 강남구 청담동 100-17
37.5499766,126.92390869999997,서울 마포구 상수동 86-30
37.5028998,127.05162789999997,서울 강남구 대치동 897-26 동선빌딩 2층
35.2022794,126.82804529999999,광주 광산구 수완동 437번지
35.1466867,129.05964070000005,부산 부산진구 범천1동 849-8번지 삼성전자10층
37.5634738,127.05785349999996,서울 동대문구 답십리동 952-18 장수빌딩 3층
37.48142259999999,127.04127900000003,서울 서초구 양재동 6-38번지 윈윈센터1층
37.4879689,126.99574860000007,서울 서초구 방배동 895-16 효찬빌딩 4층
37.5655638,127.08378829999992,서울 광진구 중곡동 166-4번지 1층
37.5633252,126.98345510000001,서울 중구 명동2가 55-7 1층
36.362167,127.35031839999999,대전 유성구 궁동 409-6
37.3776471,127.1006549,경기 성남시 분당구 백현동 368번지
37.3400221,126.8717805,경기 안산시 상록구 부곡동 256번지
37.5215972,127.06049000000007,서울 강남구 청담2동 87-11
37.526497,127.04610120000007,서울 강남구 청담동 100-17
37.433437,127.17338189999998,경기 성남시 중원구 상대원동 333-7 금강펜테리움IT A동405
37.5117092,127.03627099999994,서울 강남구 논현동 261 현대인텔렉스빌딩 9층
35.5372658,129.34180289999995,울산 남구 삼산동 1621-3번지
37.4869635,127.13226239999995,서울 송파구 장지동 254택지개발지구 상업용지D-1 2층
35.1883431,129.08410630000003,부산 연제구 연산4동 588-3샤르망라이프빌딩 603호
37.4941059,127.03299730000003,서울 강남구 역삼동 830-71
37.2677986,127.00498820000007,경기 수원시 팔달구 매산로2가 65-5 1층
37.4989206,126.99758900000006,서울 서초구 반포4동 106-5 4층
37.6750691,127.08353169999998,서울 노원구 상계동 5동 449-8 한보빌딩 4층
37.6180732,127.18650509999998,경기 남양주시 일패동 467번지
37.5468448,126.73480819999997,인천 계양구 임학동 29-24 3층
37.60103429999999,127.13000280000006,경기 구리시 교문동 259-10 2층
35.1608857,126.88456250000002,광주 서구 농성동 418-18번지(2F)
37.1376783,126.86263789999998,경기 화성시 팔탄면 덕우리 96
35.1606062,129.15459740000006,부산 해운대구 우동 655-5번지
37.1682011,126.89273500000002,경기 화성시 팔탄면 구장리 127-84 우리들유통타운 A동 201호
37.5317566,127.01010450000001,서울 용산구 한남동 390번지 한남리버힐 A동 103호
35.85999220000001,129.22456779999993,경북 경주시 용강동 1338-2
37.506291,126.75151840000001,경기 부천시 원미구 상동 534-9 모건시티101호
37.7598688,126.78017810000006,경기 파주시 교하읍 신촌리 70-13번지
37.575102,126.960422,서울 종로구 무악동 현대아파트 111동 2004호
37.5590543,126.90506340000002,서울 마포구 망원동 479-68
37.5268937,126.76789050000002,경기 부천시 오정구 삼정동 18-31
37.4911527,127.03547789999993,서울 강남구 역삼1동 840-2 4층
37.7398265,126.50803369999994,인천 강화군 강화읍 갑곳리 651-6
37.49779850000001,126.98447859999999,서울 서초구 방배본동 752-36대림아크로리버지하104동101호
37.5485142,126.92340919999992,서울 마포구 상수동 93-45 지하3층
37.3032051,126.81090449999999,경기 안산시 단원구 초지동 742-2 키즈타운607호
37.5287115,126.82224059999999,경기 부천시 오정구 고강동 393
37.3954505,126.7144624,인천 남동구 고잔동 163B/5L
37.564851,126.98360409999998,서울 중구 을지로2가 199-39 명동아르누보센텀빌딩1층
35.7207191,126.73685520000004,전북 부안군 부안읍 봉덕리 546-1 3층
37.4953156,126.65072789999999,인천 서구 가좌동 173-219
36.989571,127.59840869999994,충북 음성군 금왕읍 금석리 275-25
37.8153311,127.14213619999998,경기 포천시 소흘읍 무봉리 169-4
35.2147444,129.10317399999997,부산 금정구 서2동 199-3번지
37.4768775,126.89175810000006,서울 금천구 가산동 SJ테크노빌 60-19번지 1213호
37.6403013,126.78669460000003,경기 고양시 일산동구 백석동 1323 동문굿모닝타워1차311호
35.6090906,126.89243290000002,전북 정읍시 북면 한교리 67-24
35.5515782,129.26906669999994,울산 남구 무거동 178-1
37.2116795,127.03224879999993,경기 화성시 진안동 480-1 D동106호
37.3419514,126.69760159999998,경기 시흥시 정왕동 2211 운종철강단지2동114호
37.5608367,127.07416979999994,서울 광진구 중곡동 611-2 2층
37.5235937,127.03886609999995,서울 강남구 신사동 666-12
36.9895936,127.08832210000003,경기 평택시 평택동 194-3 미라클상가 1동 402호
37.6728818,127.08323210000003,서울 노원구 상계3.4동 37-7
37.9539438,126.91979220000007,경기 파주시 적성면 마지리 63번지
37.5409583,126.96001980000005,서울 용산구 효창동 130-2 아이딜APT 103호
37.4134446,127.12549969999998,경기 성남시 분당구 야탑동 342-1 리더스B/D 815호
37.3375194,126.70864240000003,경기 시흥시 정왕동 1249-6 시화공단1라506호
37.298321,126.96857969999996,경기 수원시 장안구 율전동 306-2
37.5190298,126.7182206,인천 부평구 청천동 420-2
35.8673051,128.63218889999996,대구 수성구 만촌1동 419번지 19호
37.4635168,126.6247813,인천 중구 항동7가 1-2번지 여객터미널내1층
37.5265283,127.03597519999994,서울 강남구 신사동 644-22 1층
37.750891,126.76662510000006,경기 파주시 금촌동 986-5 미라클프라자
36.8240345,127.1110013,충남 천안시 백석동 719번지
35.8919892,128.61413730000004,대구 북구 복현동 573-13 경북대학교테크노빌딩511호
37.4501755,126.86169359999997,경기광명시하안 406-1 406-1
35.2202087,128.9703283,부산 강서구 대저1동 1358-21
37.5308503,127.00904279999997,서울 용산구 한남1동 123 고뫄스빌딩 5층
37.68714629999999,127.03957459999992,서울 도봉구 도봉동 282-225
37.5696511,126.98029120000001,서울 종로구 서린동 99 SK빌딩지하1층
37.3738509,126.64270839999995,인천 연수구 송도동 11-82.83
36.6555572,127.48876110000003,충북 청주시 상당구 내덕동 212-8
37.5639886,127.19079390000002,경기 하남시 망월동 170번지 창고번호 101
37.3248887,127.95824160000006,강원 원주시 단구동 1599-6번지3층
37.403709,127.12142240000003,경기 성남시 분당구 이매동 132
35.8647927,127.12775110000007,전북 전주시 덕진구 송천동2가 202-61
35.89009,128.64664949999997,대구 동구 입석동 930-5번지
37.5147679,127.06489340000007,서울 강남구 삼성동 162-12 성은빌딩 2층
37.2966778,127.11945089999995,경기 용인시 기흥구 언남동 341-5. 삼광아트빌 403호
37.2394628,127.05635849999999,경기 수원시 영통구 망포동 386 1층
33.4921659,126.53776829999993,제주 제주시 이도2동 863번지
37.6926935,126.7568976,경기 고양시 일산서구 덕이동 383-5 일산상설할인타운 H-102
37.5464578,127.0484361,서울 성동구 성수동1가 656-766개풍빌딩3층
37.5235937,127.03886609999995,서울 강남구 신사동 666-12
37.6569503,127.06526759999997,서울 노원구 상계동 349-52 1층
36.3692304,128.14709849999997,경북 상주시 지천동 401-1
35.1354558,126.90103060000001,광주 남구 백운동 638-1
35.2395289,128.65563739999993,경남 창원시 두대동 333 더시티세븐트레이드센터2층
37.4768775,126.89175810000006,서울 금천구 가산동 SJ테크노빌 60-19번지 1213호
37.3617854,126.93886470000007,경기 군포시 금정동 713-8금정타운402호
35.4981367,127.40683009999998,전북 남원시 보절면 진기리 산178번지
37.544249,127.05265910000003,서울 성동구 성수2가3동 302-8
37.5045459,127.06620509999993,서울 강남구 대치동 1007
35.9420459,128.56386229999998,대구 북구 구암동 769-2번지 부라운빌딩4층
35.9642543,126.69420660000003,전북군산시나운동 838-1대한생명군산사옥 3층 838-1 대한생명 군산사옥 3층
36.307103,127.39805819999992,대전 중구 문화동 557-11번지 2층
37.5421353,126.93888249999998,서울 마포구 용강동 149-29 302호
36.4083852,127.24391960000003,충남 공주시 반포면 봉곡리 110-12
37.4859324,126.89328569999998,서울 구로구 구로3동 에이스테크노8차 908호
36.313264,127.38112539999997,대전 서구 도마동 175-8번지 3층
37.4890458,127.12224220000007,서울 송파구 문정동 42-10 대명빌딩 3층
37.5926425,127.07210459999999,서울 중랑구 상봉동 137-9호 2층
37.4469565,126.69817460000002,인천 남동구 구월동 1371-8
37.4742174,127.0476999,서울 서초구 양재동 288-4번지 3층 302호
35.9276192,128.36910699999999,경북 성주군 선남면 오도리 1-10번지
37.5139058,127.02197320000005,서울 강남구 논현동 23-16 크레아빌딩 5층
37.5367433,127.12311929999998,서울 강동구 성내동 78-11 케이에이치빌딩 7층
36.9863581,126.8463865,경기 평택시 포승읍 도곡리 1156-3
37.5848258,127.08013400000004,서울 중랑구 면목동 151-9번지 1층
37.5084847,126.88298039999995,서울 구로구 신도림동 대림7차아파트 806동404호
37.2088297,127.04761170000006,경기 화성시 병점동 신창비바훼밀리아파트203동1202호
35.1467763,128.98835370000006,부산 사상구 학장동 271-4
36.3585468,127.42489539999997,대전 대덕구 중리동 236-8
37.5893088,127.05395769999996,서울 동대문구 회기동 65-34번지 현장 내
37.5016271,127.03552130000003,서울 강남구 역삼동 642-1 역삼벤쳐텔 908호
37.3283498,126.71429660000001,경기 시흥시 정왕동 2092-9 2마507-3호
37.53113860000001,126.71060390000002,인천 계양구 효성동 66-10 구일빌딩2층
37.5235937,127.03886609999995,서울 강남구 신사동 666-12
37.5604415,126.91713920000007,서울 마포구 성산동 226-4 창해빌딩
35.1615123,129.06360440000003,부산 부산진구 전포동 607-1 적십자회관 7층 702호
37.2369553,127.20374850000007,경기 용인시 처인구 김량장동 305-4
37.2971075,127.15167529999997,경기 용인시 기흥구 청덕동 구성택지개발근린생활1-1호
33.5128497,126.52658550000001,제주 제주시 일도1동 1476-2
37.2798966,127.11349500000006,경기 용인시 기흥구 구갈동 354-4 금강프라자405호
37.5122839,126.94562599999995,서울 동작구 노량진1동 125-32호
37.5445385,127.06058140000005,서울 성동구 성수2가3동 277-47 308호
35.8915306,128.55854939999995,대구 북구 노원동3가 655-2
35.8672737,128.70827110000005,대구 동구 서호동 105-3번지
35.0351516,127.05667870000002,전남 화순군 동면 오동리 72-7번지
37.4234496,126.65299129999994,인천 연수구 옥련동 402번지 준프라자 105호
37.5231963,126.77973010000005,경기 부천시 오정구 내동 169-9
35.2180102,126.8783962,광주 북구 본촌동 667-3
37.5077687,126.70384430000001,인천 부평구 산곡동 99-5
35.4864984,129.41383059999998,울산 동구 방어동 1128-5
37.4812197,126.91480000000001,서울 관악구 신림11동 1569-4.1층
36.3170664,127.39895939999997,대전 중구 유천동 180-1번지 세운하이츠 101호
35.157426,129.05704149999997,부산 부산진구 부전동 503-1
37.5287847,126.78630850000002,경기 부천시 오정구 오정동 556-29번지
37.5067534,127.13274380000007,서울 송파구 오금동 81-5 6층
37.2759341,127.14404749999994,경기 용인시 기흥구 상하동 483-1
35.1517462,126.86511139999993,광주 서구 쌍촌동 956-7
35.9091008,128.60685769999998,대구 북구 산격2동 1546
37.5479265,127.00696760000005,서울 중구 신당동 432-1780 레노시스빌딩
37.2578802,127.01465689999998,경기 수원시 권선구 세류3동 508-44
37.1867948,126.97220790000006,경기 화성시 정남면 보통리 421-2호
37.8066115,127.13123740000003,경기 포천시 소흘읍 이동교리 298-23
35.15248589999999,126.85444440000003,광주 서구 치평동 1241-1 상무병원빌딩
37.40294060000001,127.00810479999996,경기 의왕시 청계동 452번지
36.6193889,127.4492702,충북 청주시 흥덕구 개신동 661번지 3층
35.2665116,128.86177229999998,경남 김해시 삼계동 404-2 오션프라쟈 301호
37.3658563,126.94701009999994,경기 군포시 금정동 695-6 1층
37.1592737,126.98056959999997,경기 화성시 정남면 신리 217-2
37.5605263,126.96261030000005,서울 서대문구 충정로3가 63-1 삼창빌딩 8층
35.1669624,126.93336539999996,광주 북구 두암동 905-8번지
35.0612619,126.9924168,전남 화순군 화순읍 만연리 241번지
37.4935636,126.72457239999994,인천 부평구 부평동 201-9번지
36.5621502,128.19414889999996,경북 상주시 함창읍 오동리 407 한창논공단지내
37.4935636,126.72457239999994,인천 부평구 부평동 201-9번지
37.4593848,126.68875509999998,인천 남구 주안동 999-11번지
37.6241146,127.07494429999997,서울 노원구 공릉동 513-66번지 2층
37.4964557,127.02968850000002,서울 강남구 역삼동 826-26번지 2층
37.6403013,126.78669460000003,경기 고양시 일산동구 백석동 1323 동문굿모닝타워1차311호
35.1342936,126.83902620000003,광주 서구 벽진동 120-1
34.7685223,127.69861450000008,전남 여수시 둔덕동 492-2
37.4945186,127.06263319999994,서울 강남구 대치1동 599번지 대원빌딩 1층
37.173445,126.88346309999997,경기 화성시 팔탄면 율암리 112
37.5604415,126.91713920000007,서울 마포구 성산동 226-4 창해빌딩
37.3178788,126.83608930000003,경기 안산시 단원구 고잔동 535-2 코스모스프라자1층
37.0235751,127.25858659999994,경기 안성시 대덕면 소현리 294
35.188265,126.89340199999992,광주 북구 매곡동 42-2 삼익아파트 상가동105
37.6141387,126.6438508,인천 서구 금곡동 6블럭6롯트
37.87890180000001,127.05587549999996,경기 동두천시 송내동 498-1
37.40294060000001,127.00810479999996,경기 의왕시 청계동 452번지
37.3849431,126.95458229999997,경기 안양시 동안구 호계동 1054-2
37.4009174,127.19269180000003,경기 광주시 직동 87-1
37.3419514,126.69760159999998,경기 시흥시 정왕동 2211 운종철강단지2동114호
36.3410445,127.4476214,대전 동구 자양동 199-17번지
35.8601264,128.60483669999996,대구 중구 대봉1동 28-40번지 1층
37.3572407,126.77132970000002,경기 시흥시 거모동 541
38.1224479,128.20364789999996,강원 인제군 북면 원통리 645-17
37.3846485,127.12238219999995,경기 성남시 분당구 서현동 269-1 산호프라자 210호
37.4935636,126.72457239999994,인천 부평구 부평동 201-9번지
35.0618281,128.07360270000004,경남 사천시 사남면 월성리 302-2엘아지아파트현장내
35.1674659,128.89244929999995,부산 강서구 봉림동 959-6번지
37.6813789,127.3063158,경기 남양주시 화도읍 가곡리 150-1
37.5634981,127.06442730000003,서울 동대문구 장안동 417-1 1층
37.49985,126.88771810000003,서울 구로구 구로5동 112-41 보성빌딩5층
37.5655638,127.08378829999992,서울 광진구 중곡동 166-4번지 1층
37.5288606,126.73827870000002,인천 계양구 작전동 580번지 성호상가 103호
37.66055619999999,127.34710930000006,경기 남양주시 화도읍 답내리 234-1
35.8173685,128.5403268,대구 달서구 상인동 1514 동방상가106/101
37.5703807,126.98602170000004,서울 종로구 종로2가 12번지 12번지귀금속상가
35.1292882,126.91359069999999,광주 남구 봉선동 1025-4
35.5205463,127.72876059999999,경남 함양군 함양읍 용평리 612-8
37.3544447,126.72299999999996,경기 시흥시 정왕3동 1861-23 메가쇼핑몰 115호
37.2470963,127.05054070000006,경기 수원시 영통구 신동 486디지털엠파이어2 103동 702호
37.4807957,126.9947942,서울 서초구 방배동 915-11 이창빌딩4층
37.5217547,127.03060200000004,서울 강남구 신사동 589-21 1층
37.4956764,126.74381979999998,경기 부천시 원미구 상동 575-7
37.5703807,126.98602170000004,서울 종로구 종로2가 12번지 12번지귀금속상가
37.3756384,127.9401249,강원 원주시 우산동 411-12
37.6322336,127.01827419999995,서울 강북구 수유1동 472-205
37.420857,126.910258,경기 안양시 만안구 석수1동 805 구룡주공@ 104동 801호
35.0880944,128.88383699999997,부산 강서구 신호동 209-2
37.4859044,126.9022847,서울 영등포구 대림동 1122번지 신대림자이 201동 2105호
35.1791365,129.1976886,부산 해운대구 송정동 422-2번지 10/3
37.5637417,126.92351039999994,서울 마포구 연남동 239-44번지
35.1665147,129.17131189999998,부산 해운대구 중동 1764-8 번지
37.3673454,127.10628500000007,경기 성남시 분당구 정자동 23-1 지파크프라자102호
37.526497,127.04610120000007,서울 강남구 청담동 100-17
35.286066,126.73736499999995,전남 장성군 동화면 용정리 249-4
37.4050715,127.12691410000002,경기 성남시 분당구 이매동 97-6 금강프라자 지하1층
38.1885729,128.58993740000005,강원 속초시 조양동 1518-5번지16통1반
37.57721470000001,127.05504020000001,서울 동대문구 전농동 293-20
37.5723555,126.98180179999997,서울 종로구 수송동 58 두산위브파빌리온202호
37.5693773,127.03828040000008,서울 성동구 마장동 511-13
35.8406016,128.49697879999997,대구 달서구 갈산동 358-53
37.8229535,127.13154680000002,경기 포천시 소흘읍 이동교리 192-1
35.5545661,129.31861979999996,울산 중구 성남동 226-19
37.3774417,126.78488570000002,경기 시흥시 장곡동 818-2 1층
35.1524177,129.05975119999994,부산 부산진구 부전2동 229-1번지 에이원프라자 6층
37.2485981,126.94489610000005,경기 화성시 매송면 천천리 163
37.5703807,126.98602170000004,서울 종로구 종로2가 12번지 12번지귀금속상가
35.2475336,128.62081749999993,경남 창원시 팔용동 37-4
35.952628,127.16640729999995,전북 완주군 봉동읍 율소리 924-1
35.1595229,129.11375939999994,부산 수영구 광안2동 141-19
37.49193289999999,127.02886719999992,서울 서초구 서초동 1337-2현대골든텔1411호
37.8731804,127.75224170000001,강원 춘천시 후평동 24-1
37.0052838,127.27669800000001,경기 안성시 봉산동 386-2 명성빌딩2층
35.1715196,126.8805949,광주 북구 운암동 1476번지
37.5722842,126.98249669999996,서울 종로구 견지동 110 종로1가 대성스카이렉스 101-107
37.3510388,126.75787190000005,경기 시흥시 정왕동 519-13
34.9621559,127.72825579999994,전남 광양시 광영동 736-7번지 2층
35.9379717,129.27787239999998,경북 경주시 천북면 오야리 산1-1 천북지방산업단지 13B-5L
37.86536510000001,126.84511380000004,경기 파주시 법원읍 동문리 625-2
37.4907399,126.64896590000001,인천 동구 송현동 142-20
37.5039349,127.02832839999996,서울 강남구 역삼동 616-9번지
37.5580029,126.9348195,서울 서대문구 창천동 53-11 3층
37.2425565,127.1683107,경기 용인시 처인구 삼가동 208-4번지
37.5421713,126.97188449999999,서울 용산구 갈월동 93-30 국제전산빌딩 4층
36.1207495,128.36309929999993,경북 구미시 신평동 468 번지 롯데마트2층
37.6715085,126.75897299999997,경기 고양시 일산서구 주엽동 18-2번지 서현프라자416호
37.2573255,127.06003169999997,경기 수원시 영통구 매탄동 494-7 B동1층
37.5274588,126.86200789999998,서울 양천구 신정동 890-5 지하
35.836309,127.15476949999993,전북 전주시 덕진구 인후동1가 783-2
37.2685759,126.9728675,경기 수원시 권선구 탑동 819-1 대운빌딩5층
35.213145,128.598116,경남 마산시 봉암동 660-109
38.1051091,128.19846180000002,강원 인제군 인제읍 합강리 40-10
35.1200372,129.11195900000007,부산 남구 용호1동 370-34
37.4846873,127.04520500000001,서울 강남구 도곡2동 420-3 삼원B/D 3층
35.0618281,128.07360270000004,경남 사천시 사남면 월성리 302-2엘아지아파트현장내
35.7740263,129.30092639999998,경북 경주시 시래동 327-4
35.7912054,128.5182721,대구 달성군 화원읍 본리리 405번지
37.5265133,127.17405759999997,경기 하남시 광암동 106번지
35.7912054,128.5182721,대구 달성군 화원읍 본리리 405번지
37.2679124,127.00030659999993,경기　수원시 팔달구　매산로1가 11번지 11번지
37.2679124,127.00030659999993,경기　수원시 팔달구　매산로1가 11번지 11번지
36.9825977,126.92789429999993,경기 평택시 안중읍 현화리 856-7
36.9920416,127.08991730000002,경기 평택시 평택동 292-8번지
37.3956611,126.65095350000001,인천 연수구 송도동 3-1번지 밀레니엄프라자 7층
35.4641938,128.30256450000002,경남 의령군 봉수면 삼가리 74
35.824212,128.73772859999997,경북 경산시 중방동 870-6 4층
36.9920416,127.08991730000002,경기 평택시 평택동 292-8번지
37.57223130000001,126.99743450000005,서울 종로구 인의동 효성쥬얼리시티 1층 110호
37.48465100000001,126.8118925,경기 부천시 소사구 괴안동 113-8번지 브릭스BD 6층
37.4276497,126.79518310000003,경기 시흥시 은행동 307-4
37.4723428,128.00140050000005,강원 횡성군 횡성읍 남산리 송호대학 창조관 1층
37.492494,126.7252307,인천 부평구 부평동 153-28번지 2층
37.5596888,126.84596080000006,서울 강서구 등촌3동 699-3 아카데미프라자 301호
37.8229535,127.13154680000002,경기 포천시 소흘읍 이동교리 192-1
35.1294132,126.89997289999997,광주 남구 주월1동 1205-9
35.1294132,126.89997289999997,광주 남구 주월1동 1205-9
33.4739367,126.48778219999997,제주 제주시 연동 1349
37.6260931,127.19025699999997,경기 남양주시 일패동 99-7
35.172038,129.13248220000003,부산 해운대구 우동 1484번지 한화오피스텔현장 지하
37.7400212,127.22562689999995,경기 남양주시 진접읍 진벌리 246-3
35.8495687,127.10796989999994,전북 전주시 덕진구 팔복동2가 64-3
37.503206,127.04656840000007,서울 강남구 역삼동 707-34 한신동관911~18호
35.2579227,128.77381260000004,경남 김해시 진례면 담안리 546-2번지
37.4746528,126.88222180000002,서울 금천구 가산동 345-29
37.4028387,127.26778360000003,경기 광주시 경안동 55-11 101호
37.7400212,127.22562689999995,경기 남양주시 진접읍 진벌리 246-3
35.8441892,127.12580379999997,전북 전주시 덕진구 덕진동1가 1314-204(1층)
37.3127944,126.78791810000007,경기 안산시 단원구 원시동 727-8
37.3789456,127.31309349999992,경기 광주시 초월읍 선동리 427-1
36.0872242,128.38087470000005,경북 구미시 공단동 321-3 번지
36.3252141,127.4062811,대전 중구 오류동 187번지
37.4264502,126.83808820000002,경기 시흥시 과림동 737
35.1364053,129.10082250000005,부산 남구 대연3동 56-7번지 베스킨라빈스
35.1567133,126.88968079999995,광주 서구 농성1동 교원공제조합빌딩 417-40
35.1526399,128.9908173,부산 사상구 모라1동 동원아파트 1361번지 상가29동 301호
35.2610846,128.64088160000006,경남 창원시 도계동 409-2경남빌라 지하
35.8868266,128.65093709999996,대구 동구 검사동 990-198
33.4855695,126.53864840000006,제주 제주시 아라1동 2469
37.6583477,126.79858650000006,경기 고양시 일산동구 풍동 492-1번지
37.7102727,127.04812140000001,경기 의정부시 호원동 458-11
35.9212389,128.60502240000005,대구 북구 동변동 362-2
36.6480244,127.50204259999998,충북 청주시 상당구 수동 산 2-3
37.5421713,126.97188449999999,서울 용산구 갈월동 93-30 국제전산빌딩 4층
35.8664961,127.12650450000001,전북 전주시 덕진구 송천동2가 216-1
35.1410181,129.10641080000005,부산 수영구 남천동 357-9
37.4391936,127.17631210000002,경기 성남시 중원구 상대원동 206-4 3층
35.8647927,127.12775110000007,전북 전주시 덕진구 송천동2가 202-61
37.5407352,126.97273029999997,서울 용산구 갈월동 103-15 서조빌딩2층
35.5014605,129.4186955,울산 동구 화정동 160-18
35.1595229,129.11375939999994,부산 수영구 광안2동 141-19
35.1410181,129.10641080000005,부산 수영구 남천동 357-9
37.6557427,126.78973510000003,경기 고양시 일산구 마두1동 738번지 수연빌딩1층
35.2868168,128.88369050000006,경남 김해시 생림면 나전리 420
37.5621482,127.03794210000001,서울 성동구 행당동 168-1번지일대
35.8665015,128.5947112,대구 중구 덕산동 124-22번지 지하1층
37.4929717,127.01341209999998,서울서초구서초3동1573-10로이어즈타워6층 1573-10 로이어즈타워 6층
37.5092617,127.0561894,서울 강남구 삼성동 156-11 수목빌딩 2층
37.2071786,127.06569089999994,경기 화성시 반송동 42-8 파크프라자 404호
37.4608398,126.72890039999993,인천 남동구 만수동 107-38
37.5421353,126.93888249999998,서울 마포구 용강동 149-29 302호
35.2746197,128.38872820000006,경남 함안군 가야읍 가야리 795-1
37.4856641,126.89550209999993,서울 구로구 구로3동 191-7 에이스테크노8차1405호
35.2096406,126.89107319999994,광주 북구 일곡동 867-4
35.1532436,126.8666743,광주 서구 쌍촌동 952-23
37.6258854,126.82001109999999,경기 고양시 덕양구 토당동 70번지풍림아파트102동101호
37.2536243,126.99185280000006,경기 수원시 권선구 고색동 167-2
36.326783,127.3977688,대전 중구 태평동 335-10 5층
37.5535781,126.92312590000006,서울 마포구 서교동 358-11번지 1층2호
35.2054368,126.8146041,광주 광산구 장덕동 78-4
35.7740263,129.30092639999998,경북 경주시 시래동 327-4
37.5404326,126.94636020000007,서울　마포구　도화동 50-1 일진빌딩 8층 50-1 일진빌딩 8층
36.1173903,128.34427619999997,경북 구미시 송정동 460-8번지 그린빌딩 6층
37.0058621,127.92290660000003,충북 충주시 목행동 426-4
37.6558439,127.04069870000001,서울 도봉구 창5동 813번지 1층
37.53045729999999,126.96800059999998,서울 용산구 한강로2가 2-36번지 한강현대하이엘 203호
37.54768079999999,126.64939060000006,인천 서구 경서동 350-20 C동 102.103호
37.5404326,126.94636020000007,서울　마포구　도화동 50-1 일진빌딩 8층 50-1 일진빌딩 8층
35.9212389,128.60502240000005,대구 북구 동변동 362-2
37.5198708,127.05003069999998,서울 강남구 청담동 76번지 지하
37.6516898,126.77837620000003,경기 고양시 일산동구 마두동 802-1 그랜드프라자 지층 108-114
37.5703807,126.98602170000004,서울 종로구 종로2가 12번지 12번지귀금속상가
37.4276497,126.79518310000003,경기 시흥시 은행동 307-4
37.5650698,126.68275970000002,인천 서구 검암동 532-8
37.6666657,127.03375410000001,서울 도봉구 방학동 도봉월드 720-33 706호
36.9724651,127.93167719999997,충북 충주시 성서동 223
36.6211938,127.46988910000005,충북 청주시 흥덕구 수곡동 624번지
37.4768775,126.89175810000006,서울 금천구 가산동 삼성리더스타워 60-15번지 1203호
37.54268330000001,126.72637150000003,인천 계양구 계산동 952-17
37.5519949,126.84899930000006,서울 강서구 화곡동 997-3 한누리빌딩
37.4796679,126.95048150000002,서울 관악구 봉천4동 867-12번지
35.1361376,126.89452989999995,광주 남구 주월동 974-107
37.6793317,127.20763740000007,경기 남양주시 오남읍 오남리 501-2
36.5094626,127.16066590000003,충남 공주시 의당면 유계리 406-2번지
37.4105604,127.12820139999997,경기 성남시 분당구 야탑동 358-3 1818
36.7835238,127.58119629999999,충북 증평군 증평읍 중동리 25-5번지
37.5279003,126.86144680000007,서울 양천구 신정5동 891-33
37.1933152,127.32682879999993,경기 용인시 처인구 원삼면 맹리 566-1
36.3620087,127.37728770000001,대전 서구 월평동 256번지 한독빌딩 2층
36.8187852,127.13234360000001,충남 천안시 성정동 987 상아빌딩 3층
35.6331819,129.35008119999998,울산 북구 신천동 312-1현대하이플러스102호
37.503206,127.04656840000007,서울 강남구 역삼동 707-34 한신동관911~18호
37.0900387,126.8998325,경기 화성시 향남읍 상신리 907-7
37.5546417,126.92366059999995,서울 마포구 서교동 346-33 2층
37.5957045,127.08413789999997,서울 중랑구 상봉동 115-13
37.5957045,127.08413789999997,서울 중랑구 상봉동 115-13
37.5153154,126.75579809999999,경기 부천시 원미구 상동 545-11 상동타운 803호
37.5470183,126.92616029999999,서울 마포구 상수동 184-2두성프라자101호
35.2711529,129.09236910000004,부산 금정구 남산동 24-13번지 수광빌딩4층
35.8027889,126.89032120000002,전북 김제시 요촌동 78-5
37.515552,127.03368890000002,서울 강남구 논현동 89-8
37.4430229,126.7376514,인천 남동구 만수동 1040-7
35.952628,127.16640729999995,전북 완주군 봉동읍 율소리 924-1
36.4520209,127.42913810000005,대전 대덕구 신탄진동 117-39 드림빌딩3층
35.9567253,126.70526799999993,전북 군산시 지곡동 501 번지
34.74801350000001,126.47469750000005,전남 영암군 삼호읍 용앙리 241-4
37.6116853,127.16045350000002,경기 남양주시 도농동 2-1
37.6180732,127.18650509999998,경기 남양주시 일패동 467번지
35.8341673,127.1198339,전북 전주시 완산구 서신동 970-1 (알파빌딩)1층
37.5129903,127.02164579999999,서울 강남구 논현동 20-17 제일빌딩6층
37.0057563,127.04736419999995,경기 평택시 고덕면 동고리 264-16
35.540611,129.34919179999997,울산 남구 삼산동 219-8번지
37.7400212,127.22562689999995,경기 남양주시 진접읍 진벌리 246-3
36.7675527,127.1203782,충남 천안시 신방동 579-30
37.5115108,127.04923859999997,서울 강남구 삼성동 114-14 금탁빌딩 7층
37.1555849,128.98030790000007,강원 태백시 황지동 409-20
37.528778,127.14760660000002,서울 강동구 둔촌동 6-2
35.8522225,127.10016960000007,전북 전주시 덕진구 팔복동2가 270
36.0995073,128.45211310000002,경북 구미시 구평동 10B 2L
37.2132775,126.84182800000008,경기도 화성시 북양동  주석로80번길 96-15
37.93669209999999,127.73121659999993,강원 춘천시 신동 526-3
37.501898,126.78639440000006,경기 부천시 원미구 춘의동 167-9
37.2536243,126.99185280000006,경기 수원시 권선구 고색동 167-2
37.6383609,126.83299320000003,경기 고양시 덕양구 화정동 903-1 동서상가 404호
37.5263817,126.74298950000002,인천 계양구 서운동 55-155
34.7978339,126.37950750000005,전남 목포시 양동 7-2
37.7142271,127.04776229999993,경기 의정부시 호원1동 450
35.19112,128.08637669999996,경남 진주시 동성동 213-5 호서빌딩3층
35.9567253,126.70526799999993,전북 군산시 지곡동 501 번지
37.4681916,127.04340260000004,서울 서초구 양재동 346-3번지 202호
37.605956,127.18741969999996,경기 남양주시 이패동 570-6
37.5021383,126.71299150000004,인천 부평구 산곡동 281-5번지4층
37.4098548,126.71388860000002,인천 남동구 논현동 564-1번지 주공상가
37.5147331,126.78209859999993,경기 부천시 원미구 도당동 156-16
37.7456617,127.10884090000002,경기 의정부시 민락동 746번지 용현빌딩2층
37.5182891,127.04116840000006,서울 강남구 청담동 40-29번지 302호
37.4970219,126.78721629999995,경기 부천시 원미구 원미동 69-1
37.5267506,126.93284519999997,서울 영등포구 여의도동 84-4번지한강특화사업현장
36.6276565,127.08360719999996,충남 공주시 정안면 월산리 393
35.8963499,128.61877559999994,대구 북구 복현동 복현시영아파트 22동405호
37.5534075,126.91708019999999,서울 마포구 서교동 377-2번지 3층
37.0685029,127.92979969999999,충북 충주시 산척면 영덕리 1588-1
37.6446119,126.89914240000007,경기 고양시 덕양구 동산동 56-21
37.5502736,126.86911450000002,서울 강서구 염창동 272-27 다우빌딩2층
35.8406016,128.49697879999997,대구 달서구 갈산동 358-53
37.3006743,127.24197300000003,경기 용인시 처인구 포곡읍 삼계리 7-1
37.5010383,126.73243960000002,인천 부평구 부평동 224-1 부평역지하상가 B-64호
37.5322174,126.90462200000002,서울 영등포구 당산동5가 11-32 모자빌딩 현관
37.4844648,126.89328550000005,서울 구로구 구로3동 197-48번지 에이테크노3차 108호
35.1258826,126.878151,광주 서구 풍암동 1111-3번지
37.8488455,126.79141830000003,경기 파주시 파주읍 봉서리 405-2번지
35.246475,129.21034580000003,부산 기장군 기장읍 서부리 64-7번지
37.1150077,127.02181780000001,경기 평택시 서탄면 마두리 14-11
35.0618281,128.07360270000004,경남 사천시 사남면 월성리 302-2엘아지아파트현장내
37.4990879,127.15432609999993,서울 송파구 마천동 199-3번지 영광빌딩3층
36.3916972,127.312048,대전 유성구 반석동 638-8 노은베스트원 104호
35.5825462,126.87514959999999,전북 정읍시 북면 승부리 508-3번지
35.7740263,129.30092639999998,경북 경주시 시래동 327-4
37.2565534,127.05993420000004,경기 수원시 영통구 매탄동 492-12
37.7398265,126.50803369999994,인천 강화군 강화읍 갑곳리 651-6
37.5008108,127.03566469999998,서울 강남구 역삼1동 642-16 성지하이츠 2차 1105호
37.5617953,126.94717650000007,서울 서대문구 대현동 11-1
36.6259575,127.43516249999993,충북 청주시 흥덕구 가경동 1454-7번지 가경레저타운 10층
37.4009174,127.19269180000003,경기 광주시 직동 87-1
37.380371,126.6640903,인천 연수구 송도동 172-3번지 송도BT센터건립현장
37.5245915,126.78422360000002,경기 부천시 오정구 오정동 586-3 벽산홈타운302호
37.5513976,126.94722279999996,서울 마포구 염리동 상록아파트 103동 207호
37.5421353,126.93888249999998,서울 마포구 용강동 149-29 302호
37.5130761,126.75138049999998,경기 부천시 원미구 상동 521-17번지 2층
37.525622,127.13428920000001,서울 강동구 성내동 429-23번지  3층
37.5397885,126.94768859999999,서울 마포구 도화동 201-20
37.5297917,127.19725160000007,경기 하남시 춘궁동 23-4
37.53079160000001,127.11520719999999,서울 송파구 풍납2동 현대리버빌아파트 301동1404호
37.5620046,126.8525363,서울 강서구 등촌동 717번지 그레이스힐 101호
36.5661193,128.73111370000004,경북 안동시 삼산동 106-9
35.8390495,128.70896319999997,대구 수성구 신매동 567-21 대경빌딩 3층
35.6302178,129.35094649999996,울산 북구 호계동 198-1번지
37.6346418,127.18016779999994,경기 남양주시 진건읍 배양리 354-13번지
37.5630118,126.98358050000002,서울 중구 명동2가 55-12호
37.5115108,127.04923859999997,서울 강남구 삼성동 114-14 금탁빌딩 7층
37.3418136,127.19637439999997,경기 용인시 처인구 모현면 동림리 123
37.3418136,127.19637439999997,경기 용인시 처인구 모현면 동림리 123
37.4793145,126.67896410000003,인천 서구 가좌동 542-1
37.5520708,126.91466860000003,서울 마포구 서교동 386-6 태정빌딩
37.5520708,126.91466860000003,서울 마포구 서교동 386-6 태정빌딩
37.3114722,126.81889999999999,경기 안산시 단원구 초지동 723번지 그린빌11단지상가 105호
37.5393656,126.86665519999997,서울 양천구 목4동 740-1
37.3789456,127.31309349999992,경기 광주시 초월읍 선동리 427-1
37.3241266,126.71008110000002,경기 시흥시 정왕동 2204-10 시화공단2바1009-1호
37.5927577,127.01601189999997,서울 성북구 동소문동6가 130 삼경빌딩2층
35.5179952,129.09557100000006,울산 울주군 삼남면 가천리 696-1번지
37.4618015,126.87901869999996,경기 광명시 하안동 36-1 제일빌딩 110호~111호
37.5633624,126.85141870000007,서울 강서구 가양동 1479-10 청계빌딩 2층
35.1363028,129.09999700000003,부산 남구 대연3동 68-5번지 4층
35.0618281,128.07360270000004,경남 사천시 사남면 월성리 302-2엘아지아파트현장내
37.5723555,126.98180179999997,서울 종로구 수송동 58 두산위브파빌리온202호
35.1292113,129.11109620000002,부산 남구 용호동 176-30 LG메트로 주2상가
37.4105604,127.12820139999997,경기 성남시 분당구 야탑동 358-3 1818
36.2140405,127.06482310000001,충남 논산시 성동면 원봉리 491-1
37.2830503,127.45634769999992,경기 이천시 갈산동 현진에버빌 304동505호
37.33055,126.79544469999996,경기 안산시 단원구 원곡동 761-1 2층
37.623033,127.28686049999999,경기 남양주시 화도읍 차산리 872-1
36.4520209,127.42913810000005,대전 대덕구 신탄진동 117-39 드림빌딩3층
37.5544618,126.90100529999995,서울 마포구 망원동 456-1
37.5378698,127.00160299999993,서울 용산구 한남동 683-73
37.5335814,126.89329999999995,서울 영등포구 양평동3가 85번지 2층
36.7932637,127.7544901,충북 괴산군 문광면 문법리 581-1
37.3881077,126.94819640000003,경기 안양시 동안구 호계동 904-7 2층
37.6401673,126.77303899999993,경기 고양시 일산동구 장항동 591-21
35.54405190000001,129.3440498,울산 남구 삼산동 1542-10번지
37.5070698,127.13299469999993,서울 송파구 오금동 81-7 1층 5~7층
37.0829584,126.89920710000001,경기 화성시 향남면 구문천리 932-9번지
37.5150973,127.03826989999993,서울 강남구 논현동 241-1 동양파라곤 지하2층
37.3534267,126.95827140000006,경기 군포시 당정동 364-7 1층
37.4150151,126.73934499999996,인천 남동구 논현동 20번지 논현2택지지구 상업 2 블록
37.5231998,127.04866549999997,서울 강남구 청담2동 87번지 유원빌딩2층
35.1586339,128.70003829999996,경남 진해시 석동 647-2
37.583249,127.05481910000003,서울 동대문구 전농동 152-11 도석프라자6층
37.566535,126.97796919999996,서울특 종로구 연지동 136-56 8층 기독교연합회관 136-56 8층
36.2900768,127.46502829999997,대전 동구 대성동 291-1
37.5167101,127.10544110000001,서울 송파구 신천동 11-10 아이스페이스 6층
36.4376456,127.38787669999999,대전 유성구 봉산동 201-3번지
36.3410339,127.42811890000007,대전 동구 삼성동 302-134번지
37.5269644,126.89168829999994,서울 영등포구 양평동3가 48번지 이엔씨드림타워 408호
37.32430780000001,127.22151489999999,경기 용인시 처인구 모현면 매산리 549-2번지
37.5014531,126.90120589999992,서울 영등포구 대림3동 673번지 신풍상가 203~5호
37.4956525,127.04089920000001,서울 강남구 역삼동 775-2 초원빌딩 3.4층
35.1328591,126.82974880000006,광주 서구 벽진동 11번지
37.2582021,127.11641320000001,경기 용인시 기흥구 보라동 107 한국민속촌
35.4019341,127.37619240000004,전북 남원시 금동 305-1
37.7224732,126.85361339999997,경기 고양시 덕양구 내유동 231
35.2330946,128.56157729999995,경남 마산시 회성동 467-21
37.5068388,126.75083519999998,경기 부천시 원미구 상동 532-17 중앙프라자 601호
37.5626929,126.97400670000002,서울　중구　서소문동 75-95 유원빌딩 7층 75-95 유원빌딩 7층
35.9290249,126.94933229999992,전북 익산시 인화동1가 205-10
37.5277495,126.86169240000004,서울 양천구 신정5동 891-48번지
37.53386980000001,127.13718440000002,서울 강동구 성내3동 379번지 201호
36.42860170000001,127.29125690000001,충남 연기군 금남면 두만리 114-1번지
35.8530592,128.68757529999993,대구 수성구 가천동 21-18외 2필지
37.4098548,126.71388860000002,인천 남동구 논현동 564-1번지 주공상가
37.5043503,126.87957260000007,서울 구로구 구로동 604-1 구로기계공구상가A블럭8동119호
37.3679487,126.81224739999993,경기 시흥시 능곡동 762 송죽센타프라자301호
37.93669209999999,127.73121659999993,강원 춘천시 신동 526-3
37.4414921,127.16421990000003,경기 성남시 중원구 상대원동 784-3번지1층
37.5524188,126.92295919999992,서울 마포구 서교동 358-37 1층
37.4008149,126.70049240000003,인천 남동구 고잔동 644-5번지74B/6L
35.23545470000001,128.86650839999993,경남　김해시　내동 1118-2번지 햄튼타워2층 1118-2번지 햄튼타워2층
35.0909765,128.99787919999994,부산 사하구 감천동 648-11
37.6045958,126.66772020000008,인천 서구 마전동 검단1지구 28블럭-3롯트 101호
36.60831050000001,127.48854210000002,충북 청주시 흥덕구 분평동 1387-2 1층 101호
37.3774417,126.78488570000002,경기 시흥시 장곡동 818-2 1층
35.109155,126.876441,광주 남구 송하동 417-4
36.99105309999999,127.09298690000003,경기 평택시 합정동 735-14번지2층
37.4929717,127.01341209999998,서울서초구서초3동1573-10로이어즈타워6층 1573-10 로이어즈타워 6층
35.1790486,126.87512429999992,광주 북구 운암동 357-7
37.1730847,126.88166000000001,경기 화성시 팔탄면 율암리 121-5
37.3418136,127.19637439999997,경기 용인시 처인구 모현면 동림리 123
37.4618015,126.87901869999996,경기 광명시 하안동 36-1 제일빌딩 110호~111호
35.90092509999999,128.44548599999996,대구 달성군 하빈면 하산2리 947-8번지
37.4618015,126.87901869999996,경기 광명시 하안동 36-1 제일빌딩 110호~111호
37.4618015,126.87901869999996,경기 광명시 하안동 36-1 제일빌딩 110호~111호
37.3145962,126.817723,경기 안산시 단원구 초지동 703-3
35.13582900000001,128.97093470000004,부산 사상구 감전동 511-17
37.5743941,126.81097069999998,서울 강서구 방화동 451-7
37.1605833,127.05835990000003,경기 오산시 궐동 623-1번지 삼영빌 405호
36.3487472,127.39648669999997,대전 서구 탄방동 1177번지
37.64137789999999,127.28964029999997,경기 남양주시 화도읍 녹촌리 356-3
37.4798346,126.88249969999993,서울 금천구 가산동 371-28 우림라이온스밸리 B동 605호
36.7618217,127.13853540000002,충남 천안시 구룡동 648-2
35.1308086,128.9679532,부산 사상구 엄궁동 645-3번지
35.9120385,128.8121228,경북 경산시 하양읍 금락리 산 13-5
37.5100067,127.0344255,서울 강남구 논현2동 227-3 4층
37.4923162,127.04204099999993,서울 강남구 도곡1동 543-3 시티파크빌딩 3층 1호
37.154198,127.07899900000007,경기 오산시 부산동 운암주공3단지아파트 305동203호
37.61983499999999,127.06293240000002,서울 노원구 월계1동 64-10
37.7247973,126.61185709999995,경기 김포시 통진읍 귀전리 23-3
36.1128545,129.33648830000004,경북 포항시 북구 흥해읍 마산리 유한빌라 A동501호
35.9601021,126.96965009999997,전북 익산시 영등동 379-1번지
37.3400267,126.73058739999999,경기 시흥시 정왕동 1269-8 시화공단2마808호
37.5693773,127.03828040000008,서울 성동구 마장동 511-13
37.5099407,127.06532579999998,서울 강남구 삼성동 169-14 강남벤처빌딩3층
37.5675139,127.00658870000007,서울 중구 을지로6가 58번지 KT을지전화국1층
37.5322174,126.90462200000002,서울 영등포구 당산동5가 11-32 모자빌딩 현관
37.5007927,127.02906239999993,서울 강남구 역삼동 635-5
37.5370807,127.00035300000002,서울 용산구 한남동 739-16
37.5986649,127.05752430000007,서울 동대문구 이문동 264-409호 5층
37.4851155,126.89879829999995,서울 구로구 구로3동 187-10 코오롱싸이언스밸리 1차 901호
37.4264502,126.83808820000002,경기 시흥시 과림동 737
36.4202908,127.40704240000002,대전 유성구 탑립동 694번지 IT벤처타운 404호
37.49777780000001,127.05236890000003,서울 강남구 대치동 922-24번지 103호
35.3191732,128.79944649999993,경남 김해시 한림면 장방리 367-1
36.0125588,129.36846279999997,경북 포항시 남구 해도동 211-7
37.5244154,127.02457159999994,서울 강남구 신사동 571번지 1층
35.153084,126.91611920000003,광주 동구 대인동 49-5번지
35.2244932,128.58867839999994,경남 마산시 양덕동 157-34
36.8331133,127.14362119999998,충남 천안시 두정동 1498번지 701~2호
37.5615653,126.90475270000002,서울 마포구 망원동 474-2 에스케이빌딩 4층
37.5332573,126.84607410000001,서울 강서구 화곡8동 340-49
37.5617953,126.94717650000007,서울 서대문구 대현동 11-1
37.5986649,127.05752430000007,서울 동대문구 이문동 264-409호 5층
37.4848321,126.7231888,인천 부평구 부평동 665
37.490257,126.98997009999994,서울 서초구 방배4동 834-3 승리빌딩4층
36.1916015,127.09403010000005,충남 논산시 내동 289
37.5860505,127.21246559999997,경기 남양주시 와부읍 덕소리 474-8번지
35.1508079,126.86415420000003,광주 서구 쌍촌동 986-3번지
37.64499139999999,126.7574654,경기 고양시 일산동구 장항동 533-11번지
37.5501805,126.92323920000001,서울 마포구 상수동 86-22 전원빌딩 지하
37.5600162,127.08404300000007,서울 광진구 중곡2동 51-1번지 GS25시 편의점
35.7691174,129.44609200000002,경북 경주시 양북면 어일리 435-4
35.8255336,127.11809649999998,전북 전주시 완산구 서신동 864-2번지 4층
36.3398573,127.36735470000008,대전 서구 갈마동 인터빌아파트 101동 505호
37.4314405,126.99263859999996,경기 과천시 중앙동 37번지 과천주공1단지106동206호
37.5268027,126.89183330000003,서울 영등포구 양평동3가 46-1 이엔씨드림타워 913호
35.2360721,129.0100066,부산 북구 화명3동 2267-1번지 샤롯데플러스상가 108호
35.2197859,128.68572169999993,경남 창원시 상남동 71-3번지 아크로타워1층 107호
37.4171413,127.25614129999997,경기 광주시 초월면 용수리 29-2번지
37.598879,127.07952509999996,서울 중랑구 중화2동 301번지 110호
37.11311,127.03235810000001,경기 평택시 서탄면 수월암리 461-1
34.6393519,126.76881900000001,전남 강진군 강진읍 남성리 32-8번지
37.3837434,127.12475280000001,경기 성남시 분당구 서현동 88 지엔느오피스텔 114-1호
35.13582900000001,128.97093470000004,부산 사상구 감전동 511-17
37.4891054,127.12431650000008,서울 송파구 문정동 29-30 지하 1층
37.4798346,126.88249969999993,서울 금천구 가산동 371-28 우림라이온스밸리 B동 906호
35.5370888,129.31284900000003,울산 남구 신정2동 649-7번지
35.2298323,129.08655950000002,부산 금정구 장전동 316-10
36.8255723,127.12908570000002,충남 천안시 두정동 628 일영빌딩 B1
36.3354288,127.41135540000005,대전 중구 목동 15번지 포스코건설 현장 내
37.5862664,127.04817980000007,서울 동대문구 청량리동 46-19
37.3759982,127.14090529999999,경기 성남시 분당구 서현동 337-1
37.5677533,127.08471350000002,서울 광진구 중곡3동 168-8
36.8725896,126.87902250000002,충남 아산시 인주면 걸매리 1053
37.5558225,126.93793470000003,서울 서대문구 창천동 29-81 르메이에르 103-1호
35.7806296,127.41853990000004,전북 진안군 진안읍 군하리 353-3번지
35.8475799,128.50791460000005,대구 달서구 갈산동 100-45
37.5626929,126.97400670000002,서울　중구　서소문동 75-95 유원빌딩 7층 75-95 유원빌딩 7층
37.4997778,127.03232019999996,서울 강남구 역삼동 648-18 부옥빌딩 13층
35.2610822,128.87000450000005,경남 김해시 삼계동 1488-3
37.5502736,126.86911450000002,서울 강서구 염창동 272-27 다우빌딩2층
37.433437,127.17338189999998,경기 성남시 중원구 상대원동 333-7 금강펜테리움IT A동405
37.0685029,127.92979969999999,충북 충주시 산척면 영덕리 1588-1
37.43602050000001,127.22873709999999,경기 광주시 목현동 114-2 헤라하우스 106호
35.8907044,128.56598810000003,대구 북구 노원동3가 750번지
37.4435505,126.73989359999996,인천 남동구 만수동 1030-3
37.5459168,127.1026048,서울 광진구 광장동 246-11
37.8030644,127.10018160000004,경기 양주시 삼숭동 355-1
37.1866137,126.94635500000004,경기 화성시 봉담읍 당하리 48
37.4111958,126.70576099999994,인천 남동구 논현동 435-5 45B 7L
37.5168051,127.11313560000008,서울 송파구 방이동 44-3 현대토픽스 4F
37.750891,126.76662510000006,경기 파주시 금촌동 986-5 미라클프라자
35.1015426,129.0312791,부산 중구 대청동2가 38-8 1층
36.9909702,127.08839890000002,경기 평택시 평택동 298-5번지
37.2388664,127.03082159999997,경기 수원시 권선구 곡반정동 555번지
37.60103429999999,127.13000280000006,경기 구리시 교문동 259-10 2층
37.5603299,126.97956820000002,서울 중구 회현동1가 204번지 메사B/D 16층
37.8505696,127.6903628,강원 춘천시 송암동 195
37.5603686,126.98216419999994,서울 중구 충무로1가 50-10 회현지하상가 가-15호
37.5023029,127.03986639999994,서울 강남구 역삼1동 677-24 큰길타워별관
37.4852971,126.80939020000005,경기 부천시 원미구 역곡동 78-11
37.6556278,126.83480480000003,경기 고양시 덕양구 주교동 609-3번지 코스모빌딩 301호
37.5407472,126.96481599999993,서울 용산구 원효로1가 17-94번지 1층 102호
37.34860159999999,126.7271088,경기 시흥시 정왕동 시화공단 3마 219호
37.5796,126.86964349999994,경기 고양시 덕양구 덕은동 323번지
37.4494769,126.90329919999999,서울 금천구 시흥동 904-6
37.5048312,127.05438690000005,서울 강남구 대치동 891-50 세왕빌딩1층
36.0154167,129.3457525,경북 포항시 남구 대잠동 932-16
37.5182891,127.04116840000006,서울 강남구 청담동 40-29번지 302호
36.8078534,127.11149550000005,충남 천안시 불당동 751
35.0658241,126.98758909999992,전남 화순군 화순읍 신기리 311-2
37.5430967,126.72443959999998,인천계양구계산동944-11계림프라자B/D 2층 944-11번지 계림프라자B/D 2층
35.1348104,126.9538923,광주 동구 운림동 297번지
35.7276079,129.47338130000003,경북 경주시 양북면 봉길리 710
37.4698492,126.46175040000003,인천 중구 운서동 2165-160화물터미널 B
37.5603617,126.9958881,서울 중구 필동2가 19-11 대평빌딩 5층 505호
37.7627592,126.82683299999997,경기 파주시 조리읍 오산리 364-4번지
37.5561219,126.93635829999994,서울 서대문구 창천동 30-44
36.6670779,127.50275220000003,충북 청주시 상당구 율량동 366번지
37.0161065,128.33981659999995,충북 단양군 매포읍 하괴리 336-6
37.1693442,126.93616129999998,경기 화성시 봉담읍 덕리 100-5번지
37.5168051,127.11313560000008,서울 송파구 방이동 44-3 현대토픽스 4F
37.4577249,127.04785820000006,서울 서초구 신원동 536-10
37.5717424,126.79896259999998,서울 강서구 개화동 589-3
37.5189645,127.02451020000001,서울 강남구 신사동 540-19번지 301호
37.0313044,126.91319880000003,경기 평택시 청북면 옥길리 88-3외1필지
37.5603686,126.98216419999994,서울 중구 충무로1가 50-10 회현지하상가 가-15호
37.4859324,126.89328569999998,서울 구로구 구로3동 우림이비지센터빌딩 1차211호
37.6492359,126.68264220000003,경기 김포시 장기동 81-16인성빌딩2층
37.3418136,127.19637439999997,경기 용인시 처인구 모현면 동림리 123
37.2500606,127.03545200000008,경기 수원시 권선구 권선동 1297-4 제일프라자3층
37.6208887,126.65390649999995,인천 서구 마전동 4블럭8롯트 2층
35.9429346,128.55104689999996,대구 북구 읍내동 782-2번지 104호
37.5430033,127.20395170000006,경기 하남시 덕풍동 639번지
35.9238506,128.5989776,대구 북구 서변동 1779-4
36.1581773,128.35060840000006,경북 구미시 고아읍 문성리 문성택지개발지구내1-1
37.3251927,127.0765553,경기 용인시 수지구 신봉동 87-5. 신봉상가내
37.5963045,127.06107129999998,서울 동대문구 이문동 288-36 지하1층
37.6524636,127.28281549999997,경기 남양주시 화도읍 녹촌리 494-5
37.5032652,126.76961800000004,경기 부천시 원미구 중동 1149번지 계룡리슈빌 208C호
35.0618281,128.07360270000004,경남 사천시 사남면 월성리 302-2엘아지아파트현장내
35.0618281,128.07360270000004,경남 사천시 사남면 월성리 302-2엘아지아파트현장내
37.5848258,127.08013400000004,서울 중랑구 면목동 151-9번지 1층
37.5356183,126.74005220000004,인천 계양구 계산동 1084-3
37.4111958,126.70576099999994,인천 남동구 논현동 435-5 45B 7L
35.2187957,128.59598359999995,경남 마산시 봉암동 470-15
37.4847094,127.01778360000003,서울 서초구 서초동 1445-3 국제전자센타10층
35.2187957,128.59598359999995,경남 마산시 봉암동 470-15
37.4768775,126.89175810000006,서울 금천구 가산동 미래IT 202~3호
37.4768775,126.89175810000006,서울 금천구 가산동 미래IT 202~3호
37.5153154,126.75579809999999,경기 부천시 원미구 상동 545-11 상동타운 803호
35.8402068,129.20682139999997,경북 경주시 노서동 122-3
35.9219349,127.94684230000007,경북 김천시 대덕면 연화리 255
36.440626,127.41245920000006,대전 대덕구 신일동 1688-28
35.4317088,129.30506719999994,울산 울주군 온산읍 덕신리 357-16번지
35.56307839999999,129.3595596,울산 북구 진장동 633번지 진장지구48B 1L
37.760445,127.03341499999999,경기 의정부시 녹양동 376-1
35.3078018,128.73485789999995,경남 김해시 진영읍 진영리 1621-10 BK빌딩 1층
35.0686983,127.1454258,전남 화순군 동복면 독상리 산24번지
37.5544215,127.14071860000001,서울 강동구 암사동 413-3
37.4851155,126.89879829999995,서울 구로구 구로3동 187-10 코오롱싸이언스벨리1차 1207호
35.8723377,128.59665730000006,대구 중구 동문동 20-17번지
37.67011249999999,126.77305849999993,경기 고양시 일산동구 장항동 677번지
37.6138176,126.68507269999998,인천 서구 불노동 380-11번지
37.6544528,127.24408599999992,경기 남양주시 호평동 640-2 리베로빌딩 2층
37.3300883,126.8017989,경기 안산시 단원구 원곡동 937 대우아파트 812-1301
35.2436553,128.60966929999995,경남 창원시 반계동 1484번지
37.5192245,126.90482320000001,서울 영등포구 영등포동4가 65-1
37.2410242,127.03023499999995,경기 수원시 권선구 곡반정동 545-3 41B3L
37.561899,126.9851463,서울 중구 충무로2가 66-1번지
37.5939857,126.71700609999994,인천 서구 원당동 434-9바리미빌딩2층
36.3532084,127.37996040000007,대전 서구 둔산동 1364번지
36.6070173,127.48540179999998,충북 청주시 흥덕구 분평동 1390번지 6층
37.4997778,127.03232019999996,서울 강남구 역삼동 648-18 부옥빌딩 13층
36.3504119,127.38454750000005,대전광 서구   도마동 172-15 2층 172-15 2층
35.254755,128.76618789999998,경남 김해시 진례면 송현리 358
35.8654607,127.11777389999997,전북 전주시 덕진구 송천동1가 804-4(2층)
37.41258,126.67696290000004,인천 연수구 연수동 600 2층
37.6588953,127.0419832,서울 도봉구 창5동 825-1
36.9819294,127.92608889999997,충북 충주시 교현1동 766-28
37.6442774,127.28978380000001,경기 남양주시 화도읍 녹촌리 181-6
37.6177691,126.92271830000004,서울 은평구 불광2동 304-2 파레제페빌딩 3층
36.3726514,127.40054370000007,대전 대덕구 대화동 407-1번지
36.3213456,127.31898030000002,대전 유성구 용계동 327
35.1348104,126.9538923,광주 동구 운림동 297번지
37.5057333,127.05091679999998,서울 강남구 삼성동 142-34 해오름타워 6층
37.49862299999999,126.72541819999992,인천 부평구 부평동 415-17번지 1F
37.7619863,128.87288349999994,강원 강릉시 교동 1906-3
37.3165687,126.73251970000001,경기 안산시 단원구 성곡동 713-5시화4마715호
37.648965,127.04336460000002,서울 도봉구 창동 323-2 101호
37.7172235,127.18175399999996,경기 남양주시 진접읍 장현리 637 대명프라자1층 114
35.0378113,126.72537179999995,전남 나주시 삼도동 1390-1번지 2층
36.362263,127.35139520000007,대전 유성구 궁동 407-5
37.4618015,126.87901869999996,경기 광명시 하안동 36-1 제일빌딩 110호~111호
37.5235937,127.03886609999995,서울 강남구 신사동 666-12
36.8285725,127.6489636,충북 괴산군 사리면 중흥리 234
37.5972616,127.14392010000006,경기 구리시 수택2동 486-9번지 명지프라자 11층
35.39559759999999,127.38255670000001,전북 남원시 노암동 293-3
37.6544528,127.24408599999992,경기 남양주시 호평동 640-2 리베로빌딩 2층
37.1682011,126.89273500000002,경기 화성시 팔탄면 구장리 127-84 우리들유통타운 A동 201호
37.4923535,127.02972460000001,서울 서초구 서초동 1337-31 산학재단빌딩 16층
35.5389471,129.33714110000005,울산남구삼산동  1479-5 w센타3 1479-5번지 W-센터3층
35.28596890000001,128.79078370000002,경남 김해시 한림면 병동리 770-7
37.5193902,126.93027129999996,서울영등포여의도  44-34 44-34번지
37.6536309,127.0509313,서울 도봉구 창동 14번지 시티월드 13층
36.344829,127.38089250000007,대전 서구 탄방동 608 국민연금 대전회관빌딩
35.2136875,129.03641330000005,부산 북구 만덕1동 830-32번지
37.3478962,127.11113410000007,경기 성남시 분당구 구미동 43-1 지하
37.6138176,126.68507269999998,인천 서구 불노동 380-11번지
37.6756389,126.78608310000004,경기 고양시 일산동구 중산동 1802번지 풍산프라자1층
37.448321,126.68380649999995,인천 남구 주안동 1402-5주안테크401.2호
37.5091246,127.0409598,서울 강남구 역삼1동 681-17 5층
37.9539438,126.91979220000007,경기 파주시 적성면 마지리 63번지
36.7718561,127.01976850000005,충남 아산시 풍기동 274-2
37.8546922,127.74710349999998,강원 춘천시 석사동 827-1
37.6588953,127.0419832,서울 도봉구 창5동 825-1
35.208187,126.81030629999998,광주 광산구 오선동 548-14
37.9999969,127.24312839999993,경기 포천시 영중면 양문리 776-5
35.8872458,128.59495149999998,대구 북구 침산동 117-10번지
36.7888775,126.86128059999999,충남 아산시 선장면 군덕리 329
37.5276127,126.96449860000007,서울 용산구 한강로3가 40-708 용사의집 내
37.5282668,127.03591660000006,서울 강남구 신사동 639-10번지
36.5015259,127.43781130000002,충북 청원군 현도면 우록리 85번지
36.2819991,126.91291550000005,충남 부여군 부여읍 관북리 156-8번지
37.5145376,126.78508119999992,경기 부천시 원미구 도당동 75-3
37.561674,127.05746520000002,서울 성동구 용답동 249-5
35.8691618,128.54954020000002,대구 서구 중리동 33-1번지
37.4969534,126.95260439999993,서울 동작구 상도동 475-2번지
34.9072706,127.6601038,전남 광양시 황길동 883-22(월드마린센터내)
36.8766966,127.14975959999992,충남 천안시 직산읍 삼은리 76-134
35.1379487,126.89327309999999,광주 남구 월산동 1044-1
37.4933371,126.99593340000001,서울 서초구 방배동 801-1 대우멤버스5차 501호
35.2030895,126.80241120000005,광주 광산구 오선동 270-107
36.4085287,129.3716951,경북 영덕군 영덕읍 우곡리 324
37.4635469,126.95086400000002,서울 관악구 신림9동 서울대학교사회과학대학 2층
37.5070431,126.89021849999995,서울 구로구 구로동 3-25
37.5359282,127.01021679999997,서울 용산구 한남동 147번지 한남동 단국빌딩 11층
35.8700474,128.7996961,경북 경산시 진량읍 선화리 799-1
37.4442249,126.70074309999995,인천 남동구 구월1동 1465-1뉴코아10층
35.2305201,129.15101500000003,부산 해운대구 반송2동 294-4
35.2475336,128.62081749999993,경남 창원시 팔용동 101-1
38.0010668,127.24220650000007,경기 포천시 영중면 양문리 801-4
37.4676926,126.70718069999998,인천 남동구 간석4동 216-3
37.2490449,127.03521469999998,경기 수원시 권선구 권선동 1311-6
36.633199,127.42953999999997,충북 청주시 흥덕구 복대1동 2745 대건빌딩4층
37.535019,127.17158199999994,경기 하남시 초이동 322-113번지
35.800765,127.13112130000002,전북 전주시 완산구 삼천동1가 741-4
37.6010105,127.2027984,경기 남양주시 삼패동 240-5
36.3252141,127.4062811,대전 중구 오류동 동아생명빌딩 187-1 2층
35.2610846,128.64088160000006,경남 창원시 도계동 349-11
37.4618015,126.87901869999996,경기 광명시 하안동 36-1 제일빌딩 110호~111호
34.9636544,127.56632549999995,전남 광양시 광양읍 덕례리 739
34.7411585,127.73433590000002,전남 여수시 교동 304-3
33.4735731,126.5452315,제주 제주시 아라동 1728-3
35.5544282,129.321419,울산 중구 성남동 249-1
37.3418136,127.19637439999997,경기 용인시 처인구 모현면 동림리 123
35.8418102,129.18663349999997,경북 경주시 충효동 2997-5
35.1348104,126.9538923,광주 동구 운림동 297번지
37.8759155,127.72101959999998,강원 춘천시 중앙로3가 66번지 중앙B 2F
35.1524177,129.05975119999994,부산 부산진구 부전2동 229-1 에이원프라자 4층
37.441638,126.65919009999993,인천 남구 학익동 468 풍림아이원아파트상가
37.4766999,127.06406330000004,서울 강남구 개포동 601-1207
37.107771,127.06231630000002,경기 평택시 진위면 하북리 157-7
35.085126,129.03923880000002,부산 영도구 영선동4가 1번지
37.8505696,127.6903628,강원 춘천시 송암동 195
37.3710995,126.95095719999995,경기 안양시 동안구 호계동 555-9디오밸리 B-116호
37.4401754,127.17251110000007,경기 성남시 중원구 상대원동 144-3 지하1층
37.5404326,126.94636020000007,서울　마포구　도화동 50-1 일진빌딩 8층 50-1 일진빌딩 8층
36.9280923,127.03740670000002,충남 아산시 둔포면 둔포리 413-18
37.6177691,126.92271830000004,서울 은평구 불광2동 304-2 파레제페빌딩 3층
37.5374633,126.96003780000001,서울 용산구 용문동 28-47번지 1층
37.6368561,126.83407379999994,경기 고양시 덕양구 화정동 956-6
37.5397885,126.94768859999999,서울 마포구 도화동 201-20
37.6395669,126.78746909999995,경기 고양시 일산동구 백석동 1322
35.1359381,129.1016479,부산 남구 대연동 60-12번지
37.3328232,126.71485230000008,경기 시흥시 정왕동 1361-13 2라529호
35.793727,127.1170674,전북 전주시 완산구 삼천동1가 669번지
37.2116795,127.03224879999993,경기 화성시 진안동 480-1 H동 105호
37.5684359,127.05189670000004,서울 동대문구 답십리동 530-8
35.78608260000001,129.44256989999997,경북 경주시 양북면 어일리 912-6
35.1549453,129.0597401,부산 부산진구 부전동 192-2 태화백화점1층
37.1657467,127.06456750000007,경기 오산시 수청동 322
35.6580126,129.33598689999997,울산 북구 중산동 829번지
37.5046756,127.05464110000003,서울 강남구 대치동 891-52 동보빌딩6층
33.5128497,126.52658550000001,제주 제주시 일도1동 1476-2 4층
37.5268186,127.0400919,서울 강남구 신사동 664-8 삼희빌딩 지하
37.4767439,127.12762759999998,서울 송파구 장지동 254-10 북일프라자
37.32643160000001,127.09038280000004,경기 용인시 수지구 풍덕천동 692
37.4052979,126.77495709999994,경기 시흥시 포동 79-7
37.4075188,126.7056,인천 남동구 논현동 논현택지2지구 8B/4L
37.2506839,127.05019240000001,경기 수원시 영통구 신동 디지털엠파이어2 103동305호
37.5519949,126.84899930000006,서울 강서구 화곡동 997-3 한누리빌딩
37.4768775,126.89175810000006,서울 금천구 가산동 미래IT 202~3호
37.5356183,126.74005220000004,인천 계양구 계산동 1084-3
37.6382078,127.11609640000006,경기 구리시 갈매동 240-19
37.4925811,127.02957349999997,서울 서초구 서초2동 1337-32 광일빌딩 2층
37.546797,126.87151059999997,서울 양천구 목2동 507-2 덕수프라자 101호
35.3078018,128.73485789999995,경남 김해시 진영읍 진영리 1621-10
37.2989821,127.33667709999997,경기 광주시 도척면 노곡리 324-6
35.1449221,126.90132360000007,광주 남구 월산동 193-1
37.493935,127.0796226,서울 강남구 개포동 13-3 대청타워
37.3469336,126.72116679999999,경기 시흥시 정왕동 2166-1 2가101호 2층
37.5239852,126.97149990000003,서울 용산구 용산동5가 19 용산파크타워 103동 1층
37.4955697,127.01777479999998,서울 서초구 서초동 1687-1 3층
37.3720038,127.14017519999993,경기 성남시 분당구 서현동 312-1
35.8819866,128.5922375,대구 북구 칠성동2가 127 성광우방타운상가
37.6772346,126.88586529999998,경기 고양시 덕양구 대자동 263-7
37.4745747,126.8679611,경기 광명시 철산동 416번지 204호
37.3319941,126.82944529999997,경기 안산시 단원구 고잔1동 623-9번지
37.60115529999999,126.9248096,서울 은평구 응암동 86-37 1층
37.5066705,127.10901060000003,서울 송파구 송파동 20-1 2층
37.6568202,127.03998810000007,서울 도봉구 창동 731-72
36.9826259,127.91773820000003,충북 충주시 칠금동 842
37.4969534,126.95260439999993,서울 동작구 상도동 475-2번지
37.5718265,126.9925045,서울 종로구 봉익동 132번지 2층
35.28596890000001,128.79078370000002,경남 김해시 한림면 병동리 770-7
37.1807341,127.46232980000002,경기 이천시 모가면 소고리 144-1
37.6877529,127.3196299,경기 남양주시 화도읍 가곡리 16-16
37.39226130000001,126.95650330000001,경기 안양시 동안구 관양동 1591평촌아크로타워C312-2호
37.4932342,126.91971149999995,서울 동작구 신대방2동 395번지
36.12862390000001,128.4693059,경북 구미시 금전동 25-1B 9L
37.4839262,127.00944579999998,서울 서초구 서초동 1532-9
37.8130151,127.20381109999994,경기 포천시 내촌면 진목리 981번지
37.5503687,126.9213545,서울 마포구 서교동 407-21
37.5522335,126.91610360000004,서울 마포구 서교동 378-16 강화빌딩
36.186871,128.31456100000003,경북 구미시 고아읍 대망리 582-5
37.2973973,127.11119180000003,경기 용인시 기흥구 마북동 359-2번지
37.5607935,127.00559939999994,서울 중구 장충동1가 59-3
37.6538133,127.06021620000001,서울 노원구 상계동 731-5 4층
37.4969534,126.95260439999993,서울 동작구 상도동 475-2번지
37.6966049,126.73934069999996,경기 고양시 일산서구 덕이동 1047-1
35.8522362,129.22436219999997,경북 경주시 동천동 733-233
37.4811646,126.67995589999998,인천 서구 가좌동 541-6번지
37.5077209,127.08842730000003,서울 송파구 잠실동 242-2
35.8371149,128.7160268,대구 수성구 신매동 10-6 시지퍼스트 2층
35.5333875,129.31082600000002,울산 남구 신정2동 672-15번지 2층
37.4880931,127.02782690000004,서울 서초구 서초동 1342-3
35.8872458,128.59495149999998,대구 북구 침산동 117-10번지
34.8040582,126.42177679999998,전남 목포시 상동 888번지 하당지점 2층
37.5913701,127.14671320000002,경기 구리시 수택동 684-11번지101호
37.5879987,127.21832389999997,경기 남양주시 와부읍 덕소리 144
35.8393253,128.48193860000003,대구 달서구 호림동 2-21번지
35.1798775,126.833348,광주 광산구 신가동 593-34
37.28193540000001,127.15940639999997,경기 용인시 기흥구 동백동 3101-8
37.5017077,126.78927120000003,경기 부천시 원미구 춘의동 200-1 춘의테크노파크2층
33.4114473,126.26548830000002,제주 제주시 한림읍 한림리 943-7
37.475286,126.80006819999994,경기 부천시 소사구 소사본동 135-9
37.1599473,127.05907260000004,경기 오산시 궐동 625-6 에이스빌1층
37.3511549,127.10950869999999,경기 성남시 분당구 금곡동 159번지
35.8792054,127.1806219,전북 완주군 용진면 구억리 10-1
37.5561329,126.93208909999998,서울 마포구 동교동 185-7
37.7233494,127.04314440000007,경기 의정부시 호원동 313-37 쌍용스윗닷홈
35.5514655,129.26624149999998,울산 남구 무거동 1437-1
33.5128497,126.52658550000001,제주 제주시 일도1동 1476-2
36.8766966,127.14975959999992,충남 천안시 직산읍 삼은리 76-134
35.1240074,126.93476280000004,광주 동구 소태동 445-3 1층
37.3328594,126.72955139999999,경기 시흥시 정왕동 1276-4시화공단3다205
37.5130864,127.01662450000003,서울 서초구 잠원동 31-12 화신빌딩402호
35.15994,126.91029660000004,광주 북구 중흥동 712-14
37.4437881,127.17734440000004,경기 성남시 중원구 상대원동 133-2
35.1554019,126.90824429999998,광주 북구 북동 190-1 동아생명빌딩 2층
35.8411425,128.4771498,대구 달서구 파호동 205-6번지
36.4099106,127.4227287,대전 대덕구 와동 282-2번지
36.353833,126.6100884,충남 보령시 동대동 679-1번지
37.5407472,126.96481599999993,서울 용산구 원효로1가 17-94번지 1층 102호
37.3140285,127.11105470000007,경기 용인시 기흥구 보정동 1277
37.3915867,127.21844239999996,경기 광주시 태전동 525번지
37.4932699,126.78509789999998,경기 부천시 원미구 원미동 134-2
37.5667752,126.97948369999995,서울 중구 을지로1가 32(효덕빌딩)
35.2343142,128.86628429999996,경남 김해시 외동 1255-1 모아상가203
37.50443050000001,127.05037340000001,서울 강남구 대치동 889-11 대치빌딩4층
37.0113972,127.91903430000002,충북 충주시 목행동 662-1
37.2410242,127.03023499999995,경기 수원시 권선구 곡반정동 545-3 41B3L
37.4972008,127.03905179999992,서울 강남구 역삼동 727-13 세일빌딩 1층
35.1940101,128.07690619999994,경남 진주시 봉곡동 21-5 2층
37.2490449,127.03521469999998,경기 수원시 권선구 권선동 1311-6
35.8719734,128.64096429999995,대구 수성구 만촌1동 427-24
35.1810744,126.93079749999993,광주 북구 각화동 505-18
37.5763581,126.98806839999997,서울 종로구 운니동 삼환빌딩 98-5 9층
35.15994,126.91029660000004,광주 북구 중흥동 712-14
37.79673750000001,127.10514080000007,경기 양주시 삼숭동 683-2
37.5399135,126.96818370000005,서울 용산구 원효로1가 46-20 명지빌딩 3층
37.5197735,126.77809360000003,경기 부천시 오정구 내동 116 신관
37.6159356,126.66220539999995,인천 서구 대곡동 605
37.503206,127.04656840000007,서울 강남구 역삼동 707-34 한신인터밸리서관19층
37.4966501,127.02768659999992,서울 서초구 서초동 1319-11 두산베어스텔1305호
35.5698855,126.85589549999997,전북 정읍시 시기2동 338-3번지
37.6356837,126.83314719999998,경기 고양시 덕양구 화정동 966-1
37.7401557,127.05594769999993,경기 의정부시 신곡동 560
35.1419448,126.89369529999999,광주 남구 월산동 1016-10 5F
35.4196848,129.15465189999998,경남 양산시 주남동 540-9
36.344829,127.38089250000007,대전 서구 탄방동 608 국민연금대전회관빌딩
35.0846854,129.06795420000003,부산 영도구 동삼3동 1123-6번지
35.1346989,129.0884509,부산 남구 대연동 1752-9번지
37.2703075,126.97191040000007,경기 수원시 권선구 탑동 814-2번지
35.8096523,128.513594,대구 달서구 대곡동 981-1번지 1층 101호
37.5246862,127.04157859999998,서울 강남구 청담동 89-5 2층
37.7317712,127.0482637,경기 의정부시 의정부3동 378-6
37.5623685,126.9770254,서울 중구 소공동 롯데쇼핑센터빌딩 2층 코카롤리
37.3824056,126.95243249999999,경기 안양시 동안구 호계2동 926-2 동안빌딩 1층
37.5933774,127.0524342,서울 동대문구 회기동 39-3
37.6989149,127.122163,경기 남양주시 별내면 광전리 145일원
37.7368129,127.04999629999998,경기 의정부시 의정부3동 134-13 3층
36.7772488,127.76344740000002,충북 괴산군 문광면 신기리 111
35.2337721,129.012339,부산 북구 화명3동 2287-1번지 리버사이드빌딩 307호
37.5202768,127.11325060000001,서울 송파구 신천동 20-6
37.4822824,126.52161530000001,인천 중구 운남동 1307-2
36.975817,127.81949120000002,충북 충주시 이류면 대소리 166-23
36.8126012,127.15344010000001,충남 천안시 성황동 94-34
37.5246862,127.04157859999998,서울 강남구 청담동 89-5 2층
37.5345686,127.13811320000002,서울 강동구 길동 459-3 휴다임빌딩 5층
37.4966501,127.02768659999992,서울 서초구 서초동 1319-11 두산베어스텔1305호
37.6045958,126.66772020000008,인천 서구 마전동 검단 2지구 45블럭 1롯트
37.5637273,126.98076809999998,서울 중구 소공동 70 삼구빌딩1001호
37.6782072,126.75450150000006,경기 고양시 일산서구 대화동 2143번지 2층
37.5660856,126.67675059999999,인천 서구 검암동 596-1
37.6651515,127.03594199999998,서울 도봉구 방학2동 661-1번지 1층
37.3322806,126.79029639999999,경기 안산시 단원구 원곡동 991-1
37.5561329,126.93208909999998,서울 마포구 동교동 185-7
36.8304054,127.1390126,충남 천안시 두정동 1369 번지 102
35.8872458,128.59495149999998,대구 북구 침산동 117-10번지
37.5252162,127.04182749999995,서울 강남구 청담동 89-4
37.38249160000001,127.21496409999997,경기 광주시 목동 54
37.5219898,127.03411269999992,서울 강남구 신사동 630-7 5층
37.4401754,127.17251110000007,경기 성남시 중원구 상대원동 144-3 지하1층
37.5168051,127.11313560000008,서울 송파구 방이동 44-3 현대토픽스 4F
35.2331899,128.85261660000003,경남 김해시 외동 701-12
35.7240386,126.73703269999999,전북 부안군 부안읍 봉덕리 776-4
37.3854206,127.12078780000002,경기 성남시 분당구 서현동 272-3
37.5204231,127.10433339999997,서울 송파구 신천동 17-4 파크리오상가
36.440626,127.41245920000006,대전 대덕구 신일동 1688-28
35.2199184,129.0883265,부산 금정구 부곡동 395-7 애플타워 5층
37.5168051,127.11313560000008,서울 송파구 방이동 44-3 현대토픽스 4F
37.5666767,127.06689140000003,서울 동대문구 장안동 377-3번지 5층
36.9837796,127.90824499999997,충북 충주시 칠금동 345-8
35.1348104,126.9538923,광주 동구 운림동 297번지
37.6678628,126.77575690000003,경기 고양시 일산동구 장항동 830번지
37.507506,126.96174059999998,서울 동작구 흑석1동 100-5 2층
36.12862390000001,128.4693059,경북 구미시 금전동 25-1B 9L
36.6113367,127.46652919999997,충북 청주시 흥덕구 산남동 659번지
35.83502259999999,128.61236210000004,대구 수성구 상동 64-9
37.5191246,127.0286314,서울 강남구 논현2동 59-8
37.5684359,127.05189670000004,서울 동대문구 답십리동 530-8
37.6913098,126.75460999999996,경기 고양시 일산서구 덕이동 446-8
37.4950598,127.12241160000008,서울 송파구 가락동 78 아이티벤쳐타워 동관12층1202호
37.5603617,126.9958881,서울 중구 필동2가 19-11 대평빌딩 5층 505호
36.6319258,127.47919360000003,충북 청주시 흥덕구 사직동 9-20번지
37.4950598,127.12241160000008,서울 송파구 가락동 78 아이티벤쳐타워 동관12층1202호
37.5621747,127.06194800000003,서울 동대문구 장안1동 415-10
37.6722657,126.71541460000003,경기 고양시 일산구 법곳동 1102
37.5461508,126.72090559999992,인천 계양구 계산2동 897-40 성지하이트103-302호
34.9636544,127.56632549999995,전남 광양시 광양읍 덕례리 739
34.9636544,127.56632549999995,전남 광양시 광양읍 덕례리 739
37.487921,126.91140229999996,서울 동작구 신대방동 691-34호
37.4795036,127.18109349999997,경기 광주시 중부면 산성리 936-3번지
37.590469,127.01126709999994,서울 성북구 동소문동3가 63-1
37.6045958,126.66772020000008,인천 서구 마전동 검단 2지구 45블럭 1롯트
37.5547085,127.15463060000002,서울 강동구 명일동 46-2
35.1692294,126.90637560000005,광주 북구 중흥동 323-1
37.564851,126.98360409999998,서울 중구 을지로2가 199-39 명동아르누보센텀빌딩1층
35.8550909,128.50591429999997,대구 달서구 이곡동 1198-2번지
35.6180301,129.07680860000005,울산 울주군 상북면 궁근정리 780번지
37.5173449,127.02108109999995,서울 강남구 신사동 514-1 포토피아빌딩
35.7949782,127.13282159999994,전북 전주시 완산구 평화동1가 731-1
36.6433574,127.46151639999994,충북 청주시 흥덕구 봉명동 1827 세신빌딩 7층 702호
37.5430898,126.72521600000005,인천 계양구 계산1동 945-12
35.1432949,126.91773220000005,광주 동구 금동 코밀빌딩6층603호
36.0785569,128.352444,경북 구미시 오태동 660-1번지
35.2181636,126.94705739999995,광주 북구 운정동 273-7
35.8319358,127.12317889999997,전북 전주시 완산구 서신동 772-4 대륙빌딩
35.0897647,128.8681067,부산 강서구 송정동 1686-4
36.3727721,127.31960219999996,대전 유성구 지족동 907-7
37.4805069,126.76030400000002,경기 부천시 소사구 송내동 418-8번지
37.7400212,127.22562689999995,경기 남양주시 진접읍 진벌리 246-3
36.8766966,127.14975959999992,충남 천안시 직산읍 삼은리 76-134
37.931155,127.73984689999997,강원 춘천시 신북읍 율문리 500
37.583383,127.05930319999993,서울 동대문구 전농동 90번지
37.4997761,126.99902070000007,서울 서초구 반포동 535-29번지 1층
35.1517462,126.86511139999993,광주 서구 쌍촌동 956-7
35.8330997,127.1541671,전북 전주시 덕진구 인후동1가 628-11
37.3035412,127.01541250000002,경기 수원시 장안구 조원동 278-19 1층
37.4883355,126.84148370000003,서울 구로구 오류동 156-54
37.37152,127.10627610000006,경기 성남시 분당구 정자동 8-3 월드파라자 110-111호
36.3404653,127.42232809999996,대전 동구 삼성2동 322-2번지102호
37.5666767,127.06689140000003,서울 동대문구 장안동 377-3번지 5층
35.8654951,127.11473079999996,전북 전주시 덕진구 송천동1가 800-9
36.326725,127.42476850000003,대전 중구 대흥동 213-3
35.1985912,128.99831840000002,부산 북구 구포2동 949-2번지
35.1704627,126.80899980000004,광주광산구월곡 531-8 531-8
36.7893103,126.99554020000005,충남 아산시 실옥동 20-4
37.5944287,126.6612566,인천 서구 왕길동 213-3
37.5187813,126.9278117,서울 영등포구 여의도동 45-21 알리안츠타워 16층
36.0395365,129.36645499999997,경북 포항시 북구 상원동 443-11
37.01512410000001,127.9538278,충북 충주시 용탄동 620-25
36.9822167,127.94204420000005,충북 충주시 연수동 1679
37.5009604,126.7878402,경기 부천시 원미구 춘의동 202-8번지
37.746446,127.03474089999997,경기 의정부시 가능동 724번지 1층
37.2924885,127.01018049999993,경기 수원시 장안구 영화동 448-8
